[
  {
    "name": "Acton Town Underground Station",
    "lat": 51.503057,
    "lon": -0.280462,
    "child_stations": []
  },
  {
    "name": "Aldgate East Underground Station",
    "lat": 51.515037,
    "lon": -0.072384,
    "child_stations": []
  },
  {
    "name": "Aldgate Underground Station",
    "lat": 51.514246,
    "lon": -0.075689,
    "child_stations": []
  },
  {
    "name": "Alperton Underground Station",
    "lat": 51.540627,
    "lon": -0.29961,
    "child_stations": []
  },
  {
    "name": "Amersham Underground Station",
    "lat": 51.674126,
    "lon": -0.607714,
    "child_stations": []
  },
  {
    "name": "Angel Underground Station",
    "lat": 51.532624,
    "lon": -0.105898,
    "child_stations": []
  },
  {
    "name": "Archway Underground Station",
    "lat": 51.565478,
    "lon": -0.134819,
    "child_stations": []
  },
  {
    "name": "Arnos Grove Underground Station",
    "lat": 51.616446,
    "lon": -0.133062,
    "child_stations": []
  },
  {
    "name": "Arsenal Underground Station",
    "lat": 51.558655,
    "lon": -0.107457,
    "child_stations": []
  },
  {
    "name": "Baker Street Underground Station",
    "lat": 51.522883,
    "lon": -0.15713,
    "child_stations": []
  },
  {
    "name": "Balham Underground Station",
    "lat": 51.443288,
    "lon": -0.152997,
    "child_stations": []
  },
  {
    "name": "Bank Underground Station",
    "lat": 51.513132,
    "lon": -0.090047,
    "child_stations": []
  },
  {
    "name": "Barbican Underground Station",
    "lat": 51.520275,
    "lon": -0.097993,
    "child_stations": []
  },
  {
    "name": "Barking Underground Station",
    "lat": 51.539321,
    "lon": 0.081053,
    "child_stations": []
  },
  {
    "name": "Barkingside Underground Station",
    "lat": 51.585689,
    "lon": 0.088585,
    "child_stations": []
  },
  {
    "name": "Barons Court Underground Station",
    "lat": 51.490311,
    "lon": -0.213427,
    "child_stations": []
  },
  {
    "name": "Battersea Power Station Underground Station",
    "lat": 51.479932,
    "lon": -0.142142,
    "child_stations": []
  },
  {
    "name": "Bayswater Underground Station",
    "lat": 51.512284,
    "lon": -0.187938,
    "child_stations": []
  },
  {
    "name": "Becontree Underground Station",
    "lat": 51.540331,
    "lon": 0.127016,
    "child_stations": []
  },
  {
    "name": "Belsize Park Underground Station",
    "lat": 51.550529,
    "lon": -0.164783,
    "child_stations": []
  },
  {
    "name": "Bermondsey Underground Station",
    "lat": 51.49775,
    "lon": -0.063993,
    "child_stations": []
  },
  {
    "name": "Bethnal Green Underground Station",
    "lat": 51.527222,
    "lon": -0.055506,
    "child_stations": []
  },
  {
    "name": "Blackfriars Underground Station",
    "lat": 51.511581,
    "lon": -0.103659,
    "child_stations": []
  },
  {
    "name": "Blackhorse Road Underground Station",
    "lat": 51.586919,
    "lon": -0.04115,
    "child_stations": []
  },
  {
    "name": "Bond Street Underground Station",
    "lat": 51.514304,
    "lon": -0.149723,
    "child_stations": []
  },
  {
    "name": "Borough Underground Station",
    "lat": 51.501199,
    "lon": -0.09337,
    "child_stations": []
  },
  {
    "name": "Boston Manor Underground Station",
    "lat": 51.495635,
    "lon": -0.324939,
    "child_stations": []
  },
  {
    "name": "Bounds Green Underground Station",
    "lat": 51.607034,
    "lon": -0.124235,
    "child_stations": []
  },
  {
    "name": "Bow Road Underground Station",
    "lat": 51.52694,
    "lon": -0.025128,
    "child_stations": []
  },
  {
    "name": "Brent Cross Underground Station",
    "lat": 51.57665,
    "lon": -0.213622,
    "child_stations": []
  },
  {
    "name": "Brixton Underground Station",
    "lat": 51.462618,
    "lon": -0.114888,
    "child_stations": []
  },
  {
    "name": "Bromley-by-Bow Underground Station",
    "lat": 51.524839,
    "lon": -0.011538,
    "child_stations": []
  },
  {
    "name": "Buckhurst Hill Underground Station",
    "lat": 51.626605,
    "lon": 0.046757,
    "child_stations": []
  },
  {
    "name": "Burnt Oak Underground Station",
    "lat": 51.602774,
    "lon": -0.264048,
    "child_stations": []
  },
  {
    "name": "Caledonian Road Underground Station",
    "lat": 51.548519,
    "lon": -0.118493,
    "child_stations": []
  },
  {
    "name": "Camden Town Underground Station",
    "lat": 51.539292,
    "lon": -0.14274,
    "child_stations": []
  },
  {
    "name": "Canada Water Underground Station",
    "lat": 51.497931,
    "lon": -0.049405,
    "child_stations": []
  },
  {
    "name": "Canary Wharf Underground Station",
    "lat": 51.503488,
    "lon": -0.018246,
    "child_stations": []
  },
  {
    "name": "Canning Town Underground Station",
    "lat": 51.513584,
    "lon": 0.008322,
    "child_stations": []
  },
  {
    "name": "Cannon Street Underground Station",
    "lat": 51.51151,
    "lon": -0.090432,
    "child_stations": []
  },
  {
    "name": "Canons Park Underground Station",
    "lat": 51.607701,
    "lon": -0.294693,
    "child_stations": []
  },
  {
    "name": "Chalfont & Latimer Underground Station",
    "lat": 51.667985,
    "lon": -0.560689,
    "child_stations": []
  },
  {
    "name": "Chalk Farm Underground Station",
    "lat": 51.544118,
    "lon": -0.153388,
    "child_stations": []
  },
  {
    "name": "Chancery Lane Underground Station",
    "lat": 51.518247,
    "lon": -0.111583,
    "child_stations": []
  },
  {
    "name": "Charing Cross Underground Station",
    "lat": 51.50741,
    "lon": -0.127277,
    "child_stations": []
  },
  {
    "name": "Chesham Underground Station",
    "lat": 51.705208,
    "lon": -0.611247,
    "child_stations": []
  },
  {
    "name": "Chigwell Underground Station",
    "lat": 51.617916,
    "lon": 0.075041,
    "child_stations": []
  },
  {
    "name": "Chiswick Park Underground Station",
    "lat": 51.494627,
    "lon": -0.267972,
    "child_stations": []
  },
  {
    "name": "Chorleywood Underground Station",
    "lat": 51.654358,
    "lon": -0.518461,
    "child_stations": []
  },
  {
    "name": "Clapham Common Underground Station",
    "lat": 51.461742,
    "lon": -0.138317,
    "child_stations": []
  },
  {
    "name": "Clapham North Underground Station",
    "lat": 51.465135,
    "lon": -0.130016,
    "child_stations": []
  },
  {
    "name": "Clapham South Underground Station",
    "lat": 51.452654,
    "lon": -0.147582,
    "child_stations": []
  },
  {
    "name": "Cockfosters Underground Station",
    "lat": 51.65152,
    "lon": -0.149171,
    "child_stations": []
  },
  {
    "name": "Colindale Underground Station",
    "lat": 51.595424,
    "lon": -0.249919,
    "child_stations": []
  },
  {
    "name": "Colliers Wood Underground Station",
    "lat": 51.41816,
    "lon": -0.178086,
    "child_stations": []
  },
  {
    "name": "Covent Garden Underground Station",
    "lat": 51.513093,
    "lon": -0.124436,
    "child_stations": []
  },
  {
    "name": "Croxley Underground Station",
    "lat": 51.647044,
    "lon": -0.441718,
    "child_stations": []
  },
  {
    "name": "Dagenham East Underground Station",
    "lat": 51.544096,
    "lon": 0.166017,
    "child_stations": []
  },
  {
    "name": "Dagenham Heathway Underground Station",
    "lat": 51.541639,
    "lon": 0.147527,
    "child_stations": []
  },
  {
    "name": "Debden Underground Station",
    "lat": 51.645386,
    "lon": 0.083782,
    "child_stations": []
  },
  {
    "name": "Dollis Hill Underground Station",
    "lat": 51.551955,
    "lon": -0.239068,
    "child_stations": []
  },
  {
    "name": "Ealing Broadway Underground Station",
    "lat": 51.515017,
    "lon": -0.301457,
    "child_stations": []
  },
  {
    "name": "Ealing Common Underground Station",
    "lat": 51.51014,
    "lon": -0.288265,
    "child_stations": []
  },
  {
    "name": "Earl's Court Underground Station",
    "lat": 51.492063,
    "lon": -0.193378,
    "child_stations": []
  },
  {
    "name": "East Acton Underground Station",
    "lat": 51.516612,
    "lon": -0.247248,
    "child_stations": []
  },
  {
    "name": "East Finchley Underground Station",
    "lat": 51.587131,
    "lon": -0.165012,
    "child_stations": []
  },
  {
    "name": "East Ham Underground Station",
    "lat": 51.538948,
    "lon": 0.051186,
    "child_stations": []
  },
  {
    "name": "East Putney Underground Station",
    "lat": 51.459205,
    "lon": -0.211,
    "child_stations": []
  },
  {
    "name": "Eastcote Underground Station",
    "lat": 51.576506,
    "lon": -0.397373,
    "child_stations": []
  },
  {
    "name": "Edgware Road (Circle Line) Underground Station",
    "lat": 51.519858,
    "lon": -0.167832,
    "child_stations": [
      "Edgware Road (Bakerloo) Underground Station"
    ]
  },
  {
    "name": "Edgware Underground Station",
    "lat": 51.613653,
    "lon": -0.274928,
    "child_stations": []
  },
  {
    "name": "Elephant & Castle Underground Station",
    "lat": 51.494536,
    "lon": -0.100606,
    "child_stations": []
  },
  {
    "name": "Elm Park Underground Station",
    "lat": 51.549775,
    "lon": 0.19864,
    "child_stations": []
  },
  {
    "name": "Embankment Underground Station",
    "lat": 51.507058,
    "lon": -0.122666,
    "child_stations": []
  },
  {
    "name": "Epping Underground Station",
    "lat": 51.69368,
    "lon": 0.113767,
    "child_stations": []
  },
  {
    "name": "Euston Square Underground Station",
    "lat": 51.525604,
    "lon": -0.135829,
    "child_stations": []
  },
  {
    "name": "Euston Underground Station",
    "lat": 51.528186,
    "lon": -0.134239,
    "child_stations": []
  },
  {
    "name": "Fairlop Underground Station",
    "lat": 51.595618,
    "lon": 0.091004,
    "child_stations": []
  },
  {
    "name": "Farringdon Underground Station",
    "lat": 51.520252,
    "lon": -0.104913,
    "child_stations": []
  },
  {
    "name": "Finchley Central Underground Station",
    "lat": 51.600921,
    "lon": -0.192527,
    "child_stations": []
  },
  {
    "name": "Finchley Road Underground Station",
    "lat": 51.546825,
    "lon": -0.179845,
    "child_stations": []
  },
  {
    "name": "Finsbury Park Underground Station",
    "lat": 51.564158,
    "lon": -0.106825,
    "child_stations": []
  },
  {
    "name": "Fulham Broadway Underground Station",
    "lat": 51.480081,
    "lon": -0.195422,
    "child_stations": []
  },
  {
    "name": "Gants Hill Underground Station",
    "lat": 51.576544,
    "lon": 0.066185,
    "child_stations": []
  },
  {
    "name": "Gloucester Road Underground Station",
    "lat": 51.494316,
    "lon": -0.182658,
    "child_stations": []
  },
  {
    "name": "Golders Green Underground Station",
    "lat": 51.572259,
    "lon": -0.194039,
    "child_stations": []
  },
  {
    "name": "Goldhawk Road Underground Station",
    "lat": 51.502005,
    "lon": -0.226715,
    "child_stations": []
  },
  {
    "name": "Goodge Street Underground Station",
    "lat": 51.520599,
    "lon": -0.134361,
    "child_stations": []
  },
  {
    "name": "Grange Hill Underground Station",
    "lat": 51.613378,
    "lon": 0.092066,
    "child_stations": []
  },
  {
    "name": "Great Portland Street Underground Station",
    "lat": 51.52384,
    "lon": -0.144262,
    "child_stations": []
  },
  {
    "name": "Green Park Underground Station",
    "lat": 51.506947,
    "lon": -0.142787,
    "child_stations": []
  },
  {
    "name": "Greenford Underground Station",
    "lat": 51.542424,
    "lon": -0.34605,
    "child_stations": []
  },
  {
    "name": "Gunnersbury Underground Station",
    "lat": 51.491803,
    "lon": -0.275267,
    "child_stations": []
  },
  {
    "name": "Hainault Underground Station",
    "lat": 51.603659,
    "lon": 0.093482,
    "child_stations": []
  },
  {
    "name": "Hammersmith (H&C Line) Underground Station",
    "lat": 51.49331,
    "lon": -0.2243,
    "child_stations": [
      "Hammersmith (Dist&Picc Line) Underground Station"
    ]
  },
  {
    "name": "Hampstead Underground Station",
    "lat": 51.556239,
    "lon": -0.177464,
    "child_stations": []
  },
  {
    "name": "Hanger Lane Underground Station",
    "lat": 51.530177,
    "lon": -0.292704,
    "child_stations": []
  },
  {
    "name": "Harlesden Underground Station",
    "lat": 51.53631,
    "lon": -0.257883,
    "child_stations": []
  },
  {
    "name": "Harrow & Wealdstone Underground Station",
    "lat": 51.592268,
    "lon": -0.335217,
    "child_stations": []
  },
  {
    "name": "Harrow-on-the-Hill Underground Station",
    "lat": 51.579195,
    "lon": -0.337225,
    "child_stations": []
  },
  {
    "name": "Hatton Cross Underground Station",
    "lat": 51.466747,
    "lon": -0.423191,
    "child_stations": []
  },
  {
    "name": "Heathrow Terminal 4 Underground Station",
    "lat": 51.458524,
    "lon": -0.445771,
    "child_stations": []
  },
  {
    "name": "Heathrow Terminal 5 Underground Station",
    "lat": 51.470052,
    "lon": -0.49056,
    "child_stations": []
  },
  {
    "name": "Heathrow Terminals 2 & 3 Underground Station",
    "lat": 51.471235,
    "lon": -0.452265,
    "child_stations": []
  },
  {
    "name": "Hendon Central Underground Station",
    "lat": 51.583301,
    "lon": -0.226424,
    "child_stations": []
  },
  {
    "name": "High Barnet Underground Station",
    "lat": 51.650541,
    "lon": -0.194298,
    "child_stations": []
  },
  {
    "name": "High Street Kensington Underground Station",
    "lat": 51.501055,
    "lon": -0.192792,
    "child_stations": []
  },
  {
    "name": "Highbury & Islington Underground Station",
    "lat": 51.54635,
    "lon": -0.103324,
    "child_stations": []
  },
  {
    "name": "Highgate Underground Station",
    "lat": 51.577532,
    "lon": -0.145857,
    "child_stations": []
  },
  {
    "name": "Hillingdon Underground Station",
    "lat": 51.553715,
    "lon": -0.449828,
    "child_stations": []
  },
  {
    "name": "Holborn Underground Station",
    "lat": 51.51758,
    "lon": -0.120475,
    "child_stations": []
  },
  {
    "name": "Holland Park Underground Station",
    "lat": 51.507143,
    "lon": -0.205679,
    "child_stations": []
  },
  {
    "name": "Holloway Road Underground Station",
    "lat": 51.552697,
    "lon": -0.113244,
    "child_stations": []
  },
  {
    "name": "Hornchurch Underground Station",
    "lat": 51.554093,
    "lon": 0.219116,
    "child_stations": []
  },
  {
    "name": "Hounslow Central Underground Station",
    "lat": 51.471295,
    "lon": -0.366578,
    "child_stations": []
  },
  {
    "name": "Hounslow East Underground Station",
    "lat": 51.473213,
    "lon": -0.356474,
    "child_stations": []
  },
  {
    "name": "Hounslow West Underground Station",
    "lat": 51.473469,
    "lon": -0.386544,
    "child_stations": []
  },
  {
    "name": "Hyde Park Corner Underground Station",
    "lat": 51.503035,
    "lon": -0.152441,
    "child_stations": []
  },
  {
    "name": "Ickenham Underground Station",
    "lat": 51.561992,
    "lon": -0.442001,
    "child_stations": []
  },
  {
    "name": "Kennington Underground Station",
    "lat": 51.488337,
    "lon": -0.105963,
    "child_stations": []
  },
  {
    "name": "Kensal Green Underground Station",
    "lat": 51.530539,
    "lon": -0.225016,
    "child_stations": []
  },
  {
    "name": "Kensington (Olympia) Underground Station",
    "lat": 51.497624,
    "lon": -0.210015,
    "child_stations": []
  },
  {
    "name": "Kentish Town Underground Station",
    "lat": 51.550312,
    "lon": -0.140733,
    "child_stations": []
  },
  {
    "name": "Kenton Underground Station",
    "lat": 51.581756,
    "lon": -0.31691,
    "child_stations": []
  },
  {
    "name": "Kew Gardens Underground Station",
    "lat": 51.477058,
    "lon": -0.285241,
    "child_stations": []
  },
  {
    "name": "Kilburn Park Underground Station",
    "lat": 51.534979,
    "lon": -0.194232,
    "child_stations": []
  },
  {
    "name": "Kilburn Underground Station",
    "lat": 51.547183,
    "lon": -0.204248,
    "child_stations": []
  },
  {
    "name": "King's Cross St. Pancras Underground Station",
    "lat": 51.530663,
    "lon": -0.123194,
    "child_stations": []
  },
  {
    "name": "Kingsbury Underground Station",
    "lat": 51.584845,
    "lon": -0.27879,
    "child_stations": []
  },
  {
    "name": "Knightsbridge Underground Station",
    "lat": 51.501669,
    "lon": -0.160508,
    "child_stations": []
  },
  {
    "name": "Ladbroke Grove Underground Station",
    "lat": 51.517449,
    "lon": -0.210391,
    "child_stations": []
  },
  {
    "name": "Lambeth North Underground Station",
    "lat": 51.498808,
    "lon": -0.112315,
    "child_stations": []
  },
  {
    "name": "Lancaster Gate Underground Station",
    "lat": 51.511723,
    "lon": -0.175494,
    "child_stations": []
  },
  {
    "name": "Latimer Road Underground Station",
    "lat": 51.513389,
    "lon": -0.217799,
    "child_stations": []
  },
  {
    "name": "Leicester Square Underground Station",
    "lat": 51.511386,
    "lon": -0.128426,
    "child_stations": []
  },
  {
    "name": "Leyton Underground Station",
    "lat": 51.556589,
    "lon": -0.005523,
    "child_stations": []
  },
  {
    "name": "Leytonstone Underground Station",
    "lat": 51.568324,
    "lon": 0.008194,
    "child_stations": []
  },
  {
    "name": "Liverpool Street Underground Station",
    "lat": 51.517372,
    "lon": -0.083182,
    "child_stations": []
  },
  {
    "name": "London Bridge Underground Station",
    "lat": 51.505721,
    "lon": -0.088873,
    "child_stations": []
  },
  {
    "name": "Loughton Underground Station",
    "lat": 51.641443,
    "lon": 0.055476,
    "child_stations": []
  },
  {
    "name": "Maida Vale Underground Station",
    "lat": 51.529777,
    "lon": -0.185758,
    "child_stations": []
  },
  {
    "name": "Manor House Underground Station",
    "lat": 51.570738,
    "lon": -0.096118,
    "child_stations": []
  },
  {
    "name": "Mansion House Underground Station",
    "lat": 51.512117,
    "lon": -0.094009,
    "child_stations": []
  },
  {
    "name": "Marble Arch Underground Station",
    "lat": 51.513424,
    "lon": -0.158953,
    "child_stations": []
  },
  {
    "name": "Marylebone Underground Station",
    "lat": 51.522322,
    "lon": -0.163207,
    "child_stations": []
  },
  {
    "name": "Mile End Underground Station",
    "lat": 51.525122,
    "lon": -0.03364,
    "child_stations": []
  },
  {
    "name": "Mill Hill East Underground Station",
    "lat": 51.608229,
    "lon": -0.209986,
    "child_stations": []
  },
  {
    "name": "Monument Underground Station",
    "lat": 51.5107,
    "lon": -0.085969,
    "child_stations": []
  },
  {
    "name": "Moor Park Underground Station",
    "lat": 51.629845,
    "lon": -0.432454,
    "child_stations": []
  },
  {
    "name": "Moorgate Underground Station",
    "lat": 51.518176,
    "lon": -0.088322,
    "child_stations": []
  },
  {
    "name": "Morden Underground Station",
    "lat": 51.402142,
    "lon": -0.194839,
    "child_stations": []
  },
  {
    "name": "Mornington Crescent Underground Station",
    "lat": 51.534679,
    "lon": -0.138789,
    "child_stations": []
  },
  {
    "name": "Neasden Underground Station",
    "lat": 51.553986,
    "lon": -0.249837,
    "child_stations": []
  },
  {
    "name": "Newbury Park Underground Station",
    "lat": 51.575726,
    "lon": 0.090004,
    "child_stations": []
  },
  {
    "name": "Nine Elms Underground Station",
    "lat": 51.479912,
    "lon": -0.128476,
    "child_stations": []
  },
  {
    "name": "North Acton Underground Station",
    "lat": 51.523524,
    "lon": -0.259755,
    "child_stations": []
  },
  {
    "name": "North Ealing Underground Station",
    "lat": 51.517505,
    "lon": -0.288868,
    "child_stations": []
  },
  {
    "name": "North Greenwich Underground Station",
    "lat": 51.50047,
    "lon": 0.004287,
    "child_stations": []
  },
  {
    "name": "North Harrow Underground Station",
    "lat": 51.584872,
    "lon": -0.362408,
    "child_stations": []
  },
  {
    "name": "North Wembley Underground Station",
    "lat": 51.562551,
    "lon": -0.304,
    "child_stations": []
  },
  {
    "name": "Northfields Underground Station",
    "lat": 51.499319,
    "lon": -0.314719,
    "child_stations": []
  },
  {
    "name": "Northolt Underground Station",
    "lat": 51.548236,
    "lon": -0.368699,
    "child_stations": []
  },
  {
    "name": "Northwick Park Underground Station",
    "lat": 51.578481,
    "lon": -0.318056,
    "child_stations": []
  },
  {
    "name": "Northwood Hills Underground Station",
    "lat": 51.600572,
    "lon": -0.409464,
    "child_stations": []
  },
  {
    "name": "Northwood Underground Station",
    "lat": 51.611053,
    "lon": -0.423829,
    "child_stations": []
  },
  {
    "name": "Notting Hill Gate Underground Station",
    "lat": 51.509128,
    "lon": -0.196104,
    "child_stations": []
  },
  {
    "name": "Oakwood Underground Station",
    "lat": 51.647726,
    "lon": -0.132182,
    "child_stations": []
  },
  {
    "name": "Old Street Underground Station",
    "lat": 51.525864,
    "lon": -0.08777,
    "child_stations": []
  },
  {
    "name": "Osterley Underground Station",
    "lat": 51.481274,
    "lon": -0.352224,
    "child_stations": []
  },
  {
    "name": "Oval Underground Station",
    "lat": 51.48185,
    "lon": -0.112439,
    "child_stations": []
  },
  {
    "name": "Oxford Circus Underground Station",
    "lat": 51.515224,
    "lon": -0.141903,
    "child_stations": []
  },
  {
    "name": "Paddington Underground Station",
    "lat": 51.516581,
    "lon": -0.175689,
    "child_stations": [
      "Paddington (H&C Line)-Underground"
    ]
  },
  {
    "name": "Park Royal Underground Station",
    "lat": 51.527123,
    "lon": -0.284341,
    "child_stations": []
  },
  {
    "name": "Parsons Green Underground Station",
    "lat": 51.475277,
    "lon": -0.20117,
    "child_stations": []
  },
  {
    "name": "Perivale Underground Station",
    "lat": 51.536717,
    "lon": -0.323446,
    "child_stations": []
  },
  {
    "name": "Piccadilly Circus Underground Station",
    "lat": 51.51005,
    "lon": -0.133798,
    "child_stations": []
  },
  {
    "name": "Pimlico Underground Station",
    "lat": 51.489097,
    "lon": -0.133761,
    "child_stations": []
  },
  {
    "name": "Pinner Underground Station",
    "lat": 51.592901,
    "lon": -0.381161,
    "child_stations": []
  },
  {
    "name": "Plaistow Underground Station",
    "lat": 51.531341,
    "lon": 0.017451,
    "child_stations": []
  },
  {
    "name": "Preston Road Underground Station",
    "lat": 51.571972,
    "lon": -0.295107,
    "child_stations": []
  },
  {
    "name": "Putney Bridge Underground Station",
    "lat": 51.468262,
    "lon": -0.208731,
    "child_stations": []
  },
  {
    "name": "Queen's Park Underground Station",
    "lat": 51.534158,
    "lon": -0.204574,
    "child_stations": []
  },
  {
    "name": "Queensbury Underground Station",
    "lat": 51.594188,
    "lon": -0.286219,
    "child_stations": []
  },
  {
    "name": "Queensway Underground Station",
    "lat": 51.510312,
    "lon": -0.187152,
    "child_stations": []
  },
  {
    "name": "Ravenscourt Park Underground Station",
    "lat": 51.494122,
    "lon": -0.235881,
    "child_stations": []
  },
  {
    "name": "Rayners Lane Underground Station",
    "lat": 51.575147,
    "lon": -0.371127,
    "child_stations": []
  },
  {
    "name": "Redbridge Underground Station",
    "lat": 51.576243,
    "lon": 0.04536,
    "child_stations": []
  },
  {
    "name": "Regent's Park Underground Station",
    "lat": 51.523344,
    "lon": -0.146444,
    "child_stations": []
  },
  {
    "name": "Richmond Underground Station",
    "lat": 51.463237,
    "lon": -0.301336,
    "child_stations": []
  },
  {
    "name": "Rickmansworth Underground Station",
    "lat": 51.640207,
    "lon": -0.473703,
    "child_stations": []
  },
  {
    "name": "Roding Valley Underground Station",
    "lat": 51.617199,
    "lon": 0.043647,
    "child_stations": []
  },
  {
    "name": "Royal Oak Underground Station",
    "lat": 51.519113,
    "lon": -0.188748,
    "child_stations": []
  },
  {
    "name": "Ruislip Gardens Underground Station",
    "lat": 51.560736,
    "lon": -0.41071,
    "child_stations": []
  },
  {
    "name": "Ruislip Manor Underground Station",
    "lat": 51.573202,
    "lon": -0.412973,
    "child_stations": []
  },
  {
    "name": "Ruislip Underground Station",
    "lat": 51.571354,
    "lon": -0.421898,
    "child_stations": []
  },
  {
    "name": "Russell Square Underground Station",
    "lat": 51.523073,
    "lon": -0.124285,
    "child_stations": []
  },
  {
    "name": "Seven Sisters Underground Station",
    "lat": 51.58333,
    "lon": -0.072584,
    "child_stations": []
  },
  {
    "name": "Shepherd's Bush (Central) Underground Station",
    "lat": 51.504376,
    "lon": -0.218813,
    "child_stations": []
  },
  {
    "name": "Shepherd's Bush Market Underground Station",
    "lat": 51.505579,
    "lon": -0.226375,
    "child_stations": []
  },
  {
    "name": "Sloane Square Underground Station",
    "lat": 51.49227,
    "lon": -0.156377,
    "child_stations": []
  },
  {
    "name": "Snaresbrook Underground Station",
    "lat": 51.580678,
    "lon": 0.02144,
    "child_stations": []
  },
  {
    "name": "South Ealing Underground Station",
    "lat": 51.501003,
    "lon": -0.307424,
    "child_stations": []
  },
  {
    "name": "South Harrow Underground Station",
    "lat": 51.564888,
    "lon": -0.352492,
    "child_stations": []
  },
  {
    "name": "South Kensington Underground Station",
    "lat": 51.494094,
    "lon": -0.174138,
    "child_stations": []
  },
  {
    "name": "South Kenton Underground Station",
    "lat": 51.570232,
    "lon": -0.308433,
    "child_stations": []
  },
  {
    "name": "South Ruislip Underground Station",
    "lat": 51.556853,
    "lon": -0.398915,
    "child_stations": []
  },
  {
    "name": "South Wimbledon Underground Station",
    "lat": 51.415309,
    "lon": -0.192005,
    "child_stations": []
  },
  {
    "name": "South Woodford Underground Station",
    "lat": 51.591907,
    "lon": 0.027338,
    "child_stations": []
  },
  {
    "name": "Southfields Underground Station",
    "lat": 51.445073,
    "lon": -0.206602,
    "child_stations": []
  },
  {
    "name": "Southgate Underground Station",
    "lat": 51.632315,
    "lon": -0.127816,
    "child_stations": []
  },
  {
    "name": "Southwark Underground Station",
    "lat": 51.50427,
    "lon": -0.105331,
    "child_stations": []
  },
  {
    "name": "St. James's Park Underground Station",
    "lat": 51.499544,
    "lon": -0.133608,
    "child_stations": []
  },
  {
    "name": "St. John's Wood Underground Station",
    "lat": 51.534521,
    "lon": -0.173948,
    "child_stations": []
  },
  {
    "name": "St. Paul's Underground Station",
    "lat": 51.514936,
    "lon": -0.097567,
    "child_stations": []
  },
  {
    "name": "Stamford Brook Underground Station",
    "lat": 51.494917,
    "lon": -0.245704,
    "child_stations": []
  },
  {
    "name": "Stanmore Underground Station",
    "lat": 51.619839,
    "lon": -0.303266,
    "child_stations": []
  },
  {
    "name": "Stepney Green Underground Station",
    "lat": 51.521858,
    "lon": -0.046596,
    "child_stations": []
  },
  {
    "name": "Stockwell Underground Station",
    "lat": 51.472184,
    "lon": -0.122644,
    "child_stations": []
  },
  {
    "name": "Stonebridge Park Underground Station",
    "lat": 51.543959,
    "lon": -0.275892,
    "child_stations": []
  },
  {
    "name": "Stratford Underground Station",
    "lat": 51.541806,
    "lon": -0.003458,
    "child_stations": []
  },
  {
    "name": "Sudbury Hill Underground Station",
    "lat": 51.556946,
    "lon": -0.336435,
    "child_stations": []
  },
  {
    "name": "Sudbury Town Underground Station",
    "lat": 51.550815,
    "lon": -0.315745,
    "child_stations": []
  },
  {
    "name": "Swiss Cottage Underground Station",
    "lat": 51.543681,
    "lon": -0.174894,
    "child_stations": []
  },
  {
    "name": "Temple Underground Station",
    "lat": 51.511006,
    "lon": -0.11426,
    "child_stations": []
  },
  {
    "name": "Theydon Bois Underground Station",
    "lat": 51.671759,
    "lon": 0.103085,
    "child_stations": []
  },
  {
    "name": "Tooting Bec Underground Station",
    "lat": 51.435678,
    "lon": -0.159736,
    "child_stations": []
  },
  {
    "name": "Tooting Broadway Underground Station",
    "lat": 51.42763,
    "lon": -0.168374,
    "child_stations": []
  },
  {
    "name": "Tottenham Court Road Underground Station",
    "lat": 51.516426,
    "lon": -0.13041,
    "child_stations": []
  },
  {
    "name": "Tottenham Hale Underground Station",
    "lat": 51.588108,
    "lon": -0.060241,
    "child_stations": []
  },
  {
    "name": "Totteridge & Whetstone Underground Station",
    "lat": 51.630597,
    "lon": -0.17921,
    "child_stations": []
  },
  {
    "name": "Tower Hill Underground Station",
    "lat": 51.509971,
    "lon": -0.076546,
    "child_stations": []
  },
  {
    "name": "Tufnell Park Underground Station",
    "lat": 51.556822,
    "lon": -0.138433,
    "child_stations": []
  },
  {
    "name": "Turnham Green Underground Station",
    "lat": 51.495148,
    "lon": -0.254555,
    "child_stations": []
  },
  {
    "name": "Turnpike Lane Underground Station",
    "lat": 51.590272,
    "lon": -0.102953,
    "child_stations": []
  },
  {
    "name": "Upminster Bridge Underground Station",
    "lat": 51.55856,
    "lon": 0.235809,
    "child_stations": []
  },
  {
    "name": "Upminster Underground Station",
    "lat": 51.559063,
    "lon": 0.250882,
    "child_stations": []
  },
  {
    "name": "Upney Underground Station",
    "lat": 51.538372,
    "lon": 0.10153,
    "child_stations": []
  },
  {
    "name": "Upton Park Underground Station",
    "lat": 51.53534,
    "lon": 0.035263,
    "child_stations": []
  },
  {
    "name": "Uxbridge Underground Station",
    "lat": 51.546565,
    "lon": -0.477949,
    "child_stations": []
  },
  {
    "name": "Vauxhall Underground Station",
    "lat": 51.485743,
    "lon": -0.124204,
    "child_stations": []
  },
  {
    "name": "Victoria Underground Station",
    "lat": 51.496359,
    "lon": -0.143102,
    "child_stations": []
  },
  {
    "name": "Walthamstow Central Underground Station",
    "lat": 51.582965,
    "lon": -0.019885,
    "child_stations": []
  },
  {
    "name": "Wanstead Underground Station",
    "lat": 51.575501,
    "lon": 0.028527,
    "child_stations": []
  },
  {
    "name": "Warren Street Underground Station",
    "lat": 51.524951,
    "lon": -0.138321,
    "child_stations": []
  },
  {
    "name": "Warwick Avenue Underground Station",
    "lat": 51.523263,
    "lon": -0.183783,
    "child_stations": []
  },
  {
    "name": "Waterloo Underground Station",
    "lat": 51.503299,
    "lon": -0.11478,
    "child_stations": []
  },
  {
    "name": "Watford Underground Station",
    "lat": 51.657446,
    "lon": -0.417377,
    "child_stations": []
  },
  {
    "name": "Wembley Central Underground Station",
    "lat": 51.552304,
    "lon": -0.296852,
    "child_stations": []
  },
  {
    "name": "Wembley Park Underground Station",
    "lat": 51.563198,
    "lon": -0.279262,
    "child_stations": []
  },
  {
    "name": "West Acton Underground Station",
    "lat": 51.518001,
    "lon": -0.28098,
    "child_stations": []
  },
  {
    "name": "West Brompton Underground Station",
    "lat": 51.487268,
    "lon": -0.195599,
    "child_stations": []
  },
  {
    "name": "West Finchley Underground Station",
    "lat": 51.609426,
    "lon": -0.188362,
    "child_stations": []
  },
  {
    "name": "West Ham Underground Station",
    "lat": 51.528136,
    "lon": 0.005055,
    "child_stations": []
  },
  {
    "name": "West Hampstead Underground Station",
    "lat": 51.546638,
    "lon": -0.191059,
    "child_stations": []
  },
  {
    "name": "West Harrow Underground Station",
    "lat": 51.57971,
    "lon": -0.3534,
    "child_stations": []
  },
  {
    "name": "West Kensington Underground Station",
    "lat": 51.490459,
    "lon": -0.206636,
    "child_stations": []
  },
  {
    "name": "West Ruislip Underground Station",
    "lat": 51.569688,
    "lon": -0.437886,
    "child_stations": []
  },
  {
    "name": "Westbourne Park Underground Station",
    "lat": 51.52111,
    "lon": -0.201065,
    "child_stations": []
  },
  {
    "name": "Westminster Underground Station",
    "lat": 51.50132,
    "lon": -0.124861,
    "child_stations": []
  },
  {
    "name": "White City Underground Station",
    "lat": 51.511959,
    "lon": -0.224297,
    "child_stations": []
  },
  {
    "name": "Whitechapel Underground Station",
    "lat": 51.519518,
    "lon": -0.059971,
    "child_stations": []
  },
  {
    "name": "Willesden Green Underground Station",
    "lat": 51.549146,
    "lon": -0.221537,
    "child_stations": []
  },
  {
    "name": "Willesden Junction Underground Station",
    "lat": 51.532259,
    "lon": -0.244283,
    "child_stations": []
  },
  {
    "name": "Wimbledon Park Underground Station",
    "lat": 51.434573,
    "lon": -0.199719,
    "child_stations": []
  },
  {
    "name": "Wimbledon Underground Station",
    "lat": 51.421207,
    "lon": -0.206573,
    "child_stations": []
  },
  {
    "name": "Wood Green Underground Station",
    "lat": 51.597479,
    "lon": -0.109886,
    "child_stations": []
  },
  {
    "name": "Wood Lane Underground Station",
    "lat": 51.509669,
    "lon": -0.22453,
    "child_stations": []
  },
  {
    "name": "Woodford Underground Station",
    "lat": 51.606899,
    "lon": 0.03397,
    "child_stations": []
  },
  {
    "name": "Woodside Park Underground Station",
    "lat": 51.618014,
    "lon": -0.18542,
    "child_stations": []
  }
]