[
  {
    "name": "Baker Street Underground Station",
    "lat": 51.522883,
    "lon": -0.15713,
    "modes": [
      "tube"
    ],
    "lines": [
      "Jubilee",
      "Metropolitan",
      "Circle",
      "Bakerloo",
      "Hammersmith & City"
    ],
    "child_stations": [
      "Baker Street Underground Station"
    ]
  },
  {
    "name": "Charing Cross Underground Station",
    "lat": 51.50741,
    "lon": -0.127277,
    "modes": [
      "tube"
    ],
    "lines": [
      "Bakerloo"
    ],
    "child_stations": [
      "Charing Cross Underground Station"
    ]
  },
  {
    "name": "Elephant & Castle Underground Station",
    "lat": 51.494536,
    "lon": -0.100606,
    "modes": [
      "tube"
    ],
    "lines": [
      "Bakerloo"
    ],
    "child_stations": [
      "Elephant & Castle Underground Station"
    ]
  },
  {
    "name": "Embankment Underground Station",
    "lat": 51.507058,
    "lon": -0.122666,
    "modes": [
      "tube"
    ],
    "lines": [
      "Bakerloo",
      "District",
      "Circle"
    ],
    "child_stations": [
      "Embankment Underground Station"
    ]
  },
  {
    "name": "Edgware Road (Bakerloo) Underground Station",
    "lat": 51.520299,
    "lon": -0.17015,
    "modes": [
      "tube"
    ],
    "lines": [
      "Bakerloo"
    ],
    "child_stations": [
      "Edgware Road (Bakerloo) Underground Station"
    ]
  },
  {
    "name": "Harrow & Wealdstone Underground Station",
    "lat": 51.592268,
    "lon": -0.335217,
    "modes": [
      "overground",
      "tube"
    ],
    "lines": [
      "West Midlands Trains",
      "Lioness",
      "Bakerloo"
    ],
    "child_stations": [
      "Harrow & Wealdstone Underground Station"
    ]
  },
  {
    "name": "Harlesden Underground Station",
    "lat": 51.53631,
    "lon": -0.257883,
    "modes": [
      "overground",
      "tube"
    ],
    "lines": [
      "Lioness",
      "Bakerloo"
    ],
    "child_stations": [
      "Harlesden Underground Station"
    ]
  },
  {
    "name": "Kenton Underground Station",
    "lat": 51.581756,
    "lon": -0.31691,
    "modes": [
      "overground",
      "tube"
    ],
    "lines": [
      "Lioness",
      "Bakerloo"
    ],
    "child_stations": [
      "Kenton Underground Station"
    ]
  },
  {
    "name": "Kilburn Park Underground Station",
    "lat": 51.534979,
    "lon": -0.194232,
    "modes": [
      "tube"
    ],
    "lines": [
      "Bakerloo"
    ],
    "child_stations": [
      "Kilburn Park Underground Station"
    ]
  },
  {
    "name": "Kensal Green Underground Station",
    "lat": 51.530539,
    "lon": -0.225016,
    "modes": [
      "overground",
      "tube"
    ],
    "lines": [
      "Lioness",
      "Bakerloo"
    ],
    "child_stations": [
      "Kensal Green Underground Station"
    ]
  },
  {
    "name": "Lambeth North Underground Station",
    "lat": 51.498808,
    "lon": -0.112315,
    "modes": [
      "tube"
    ],
    "lines": [
      "Bakerloo"
    ],
    "child_stations": [
      "Lambeth North Underground Station"
    ]
  },
  {
    "name": "Maida Vale Underground Station",
    "lat": 51.529777,
    "lon": -0.185758,
    "modes": [
      "tube"
    ],
    "lines": [
      "Bakerloo"
    ],
    "child_stations": [
      "Maida Vale Underground Station"
    ]
  },
  {
    "name": "Marylebone Underground Station",
    "lat": 51.522322,
    "lon": -0.163207,
    "modes": [
      "tube"
    ],
    "lines": [
      "Bakerloo"
    ],
    "child_stations": [
      "Marylebone Underground Station"
    ]
  },
  {
    "name": "North Wembley Underground Station",
    "lat": 51.562551,
    "lon": -0.304,
    "modes": [
      "overground",
      "tube"
    ],
    "lines": [
      "Lioness",
      "Bakerloo"
    ],
    "child_stations": [
      "North Wembley Underground Station",
      "North Wembley Rail Station"
    ]
  },
  {
    "name": "Oxford Circus Underground Station",
    "lat": 51.515224,
    "lon": -0.141903,
    "modes": [
      "tube"
    ],
    "lines": [
      "Victoria",
      "Central",
      "Bakerloo"
    ],
    "child_stations": [
      "Oxford Circus Underground Station"
    ]
  },
  {
    "name": "Paddington Underground Station",
    "lat": 51.516581,
    "lon": -0.175689,
    "modes": [
      "tube",
      "elizabeth-line"
    ],
    "lines": [
      "District",
      "Great Western Railway",
      "Heathrow Express",
      "Elizabeth line",
      "Circle",
      "Bakerloo",
      "Hammersmith & City"
    ],
    "child_stations": [
      "Paddington Underground Station"
    ]
  },
  {
    "name": "Piccadilly Circus Underground Station",
    "lat": 51.51005,
    "lon": -0.133798,
    "modes": [
      "tube"
    ],
    "lines": [
      "Piccadilly",
      "Bakerloo"
    ],
    "child_stations": [
      "Piccadilly Circus Underground Station"
    ]
  },
  {
    "name": "Queen's Park Underground Station",
    "lat": 51.534158,
    "lon": -0.204574,
    "modes": [
      "overground",
      "tube"
    ],
    "lines": [
      "Lioness",
      "Bakerloo"
    ],
    "child_stations": [
      "Queen's Park Underground Station"
    ]
  },
  {
    "name": "Regent's Park Underground Station",
    "lat": 51.523344,
    "lon": -0.146444,
    "modes": [
      "tube"
    ],
    "lines": [
      "Bakerloo"
    ],
    "child_stations": [
      "Regent's Park Underground Station"
    ]
  },
  {
    "name": "Stonebridge Park Underground Station",
    "lat": 51.543959,
    "lon": -0.275892,
    "modes": [
      "overground",
      "tube"
    ],
    "lines": [
      "Lioness",
      "Bakerloo"
    ],
    "child_stations": [
      "Stonebridge Park Underground Station"
    ]
  },
  {
    "name": "South Kenton Underground Station",
    "lat": 51.570232,
    "lon": -0.308433,
    "modes": [
      "overground",
      "tube"
    ],
    "lines": [
      "Lioness",
      "Bakerloo"
    ],
    "child_stations": [
      "South Kenton Underground Station"
    ]
  },
  {
    "name": "Willesden Junction Underground Station",
    "lat": 51.532259,
    "lon": -0.244283,
    "modes": [
      "overground",
      "tube"
    ],
    "lines": [
      "Lioness",
      "Mildmay",
      "Bakerloo"
    ],
    "child_stations": [
      "Willesden Junction Underground Station"
    ]
  },
  {
    "name": "Warwick Avenue Underground Station",
    "lat": 51.523263,
    "lon": -0.183783,
    "modes": [
      "tube"
    ],
    "lines": [
      "Bakerloo"
    ],
    "child_stations": [
      "Warwick Avenue Underground Station"
    ]
  },
  {
    "name": "Waterloo Underground Station",
    "lat": 51.503299,
    "lon": -0.11478,
    "modes": [
      "tube"
    ],
    "lines": [
      "Bakerloo",
      "Waterloo & City",
      "Jubilee"
    ],
    "child_stations": [
      "Waterloo Underground Station"
    ]
  },
  {
    "name": "Wembley Central Underground Station",
    "lat": 51.552304,
    "lon": -0.296852,
    "modes": [
      "overground",
      "tube"
    ],
    "lines": [
      "Lioness",
      "Bakerloo"
    ],
    "child_stations": [
      "Wembley Central Underground Station"
    ]
  },
  {
    "name": "Barkingside Underground Station",
    "lat": 51.585689,
    "lon": 0.088585,
    "modes": [
      "tube"
    ],
    "lines": [
      "Central"
    ],
    "child_stations": [
      "Barkingside Underground Station"
    ]
  },
  {
    "name": "Buckhurst Hill Underground Station",
    "lat": 51.626605,
    "lon": 0.046757,
    "modes": [
      "tube"
    ],
    "lines": [
      "Central",
      "W14"
    ],
    "child_stations": [
      "Buckhurst Hill Underground Station"
    ]
  },
  {
    "name": "Bethnal Green Underground Station",
    "lat": 51.527222,
    "lon": -0.055506,
    "modes": [
      "tube"
    ],
    "lines": [
      "Central"
    ],
    "child_stations": [
      "Bethnal Green Underground Station"
    ]
  },
  {
    "name": "Bond Street Underground Station",
    "lat": 51.514304,
    "lon": -0.149723,
    "modes": [
      "tube",
      "elizabeth-line"
    ],
    "lines": [
      "Central",
      "Elizabeth line",
      "Jubilee"
    ],
    "child_stations": [
      "Bond Street Underground Station"
    ]
  },
  {
    "name": "Bank Underground Station",
    "lat": 51.513132,
    "lon": -0.090047,
    "modes": [
      "dlr",
      "tube"
    ],
    "lines": [
      "Central",
      "Waterloo & City",
      "DLR"
    ],
    "child_stations": [
      "Bank Underground Station"
    ]
  },
  {
    "name": "Chancery Lane Underground Station",
    "lat": 51.518247,
    "lon": -0.111583,
    "modes": [
      "tube"
    ],
    "lines": [
      "Central"
    ],
    "child_stations": [
      "Chancery Lane Underground Station"
    ]
  },
  {
    "name": "Chigwell Underground Station",
    "lat": 51.617916,
    "lon": 0.075041,
    "modes": [
      "tube"
    ],
    "lines": [
      "Central"
    ],
    "child_stations": [
      "Chigwell Underground Station"
    ]
  },
  {
    "name": "Debden Underground Station",
    "lat": 51.645386,
    "lon": 0.083782,
    "modes": [
      "tube"
    ],
    "lines": [
      "Central"
    ],
    "child_stations": [
      "Debden Underground Station"
    ]
  },
  {
    "name": "East Acton Underground Station",
    "lat": 51.516612,
    "lon": -0.247248,
    "modes": [
      "tube"
    ],
    "lines": [
      "Central"
    ],
    "child_stations": [
      "East Acton Underground Station"
    ]
  },
  {
    "name": "Ealing Broadway Underground Station",
    "lat": 51.515017,
    "lon": -0.301457,
    "modes": [
      "tube",
      "elizabeth-line"
    ],
    "lines": [
      "District",
      "Central",
      "Great Western Railway",
      "Elizabeth line"
    ],
    "child_stations": [
      "Ealing Broadway Underground Station"
    ]
  },
  {
    "name": "Epping Underground Station",
    "lat": 51.69368,
    "lon": 0.113767,
    "modes": [
      "tube"
    ],
    "lines": [
      "Central"
    ],
    "child_stations": [
      "Epping Underground Station"
    ]
  },
  {
    "name": "Fairlop Underground Station",
    "lat": 51.595618,
    "lon": 0.091004,
    "modes": [
      "tube"
    ],
    "lines": [
      "Central"
    ],
    "child_stations": [
      "Fairlop Underground Station"
    ]
  },
  {
    "name": "Greenford Underground Station",
    "lat": 51.542424,
    "lon": -0.34605,
    "modes": [
      "tube"
    ],
    "lines": [
      "Central"
    ],
    "child_stations": [
      "Greenford Underground Station"
    ]
  },
  {
    "name": "Grange Hill Underground Station",
    "lat": 51.613378,
    "lon": 0.092066,
    "modes": [
      "tube"
    ],
    "lines": [
      "Central"
    ],
    "child_stations": [
      "Grange Hill Underground Station"
    ]
  },
  {
    "name": "Gants Hill Underground Station",
    "lat": 51.576544,
    "lon": 0.066185,
    "modes": [
      "tube"
    ],
    "lines": [
      "Central"
    ],
    "child_stations": [
      "Gants Hill Underground Station"
    ]
  },
  {
    "name": "Holborn Underground Station",
    "lat": 51.51758,
    "lon": -0.120475,
    "modes": [
      "tube"
    ],
    "lines": [
      "Central",
      "Piccadilly"
    ],
    "child_stations": [
      "Holborn Underground Station"
    ]
  },
  {
    "name": "Hanger Lane Underground Station",
    "lat": 51.530177,
    "lon": -0.292704,
    "modes": [
      "tube"
    ],
    "lines": [
      "Central"
    ],
    "child_stations": [
      "Hanger Lane Underground Station"
    ]
  },
  {
    "name": "Hainault Underground Station",
    "lat": 51.603659,
    "lon": 0.093482,
    "modes": [
      "tube"
    ],
    "lines": [
      "Central"
    ],
    "child_stations": [
      "Hainault Underground Station"
    ]
  },
  {
    "name": "Holland Park Underground Station",
    "lat": 51.507143,
    "lon": -0.205679,
    "modes": [
      "tube"
    ],
    "lines": [
      "Central"
    ],
    "child_stations": [
      "Holland Park Underground Station"
    ]
  },
  {
    "name": "Loughton Underground Station",
    "lat": 51.641443,
    "lon": 0.055476,
    "modes": [
      "tube"
    ],
    "lines": [
      "Central",
      "W14"
    ],
    "child_stations": [
      "Loughton Underground Station"
    ]
  },
  {
    "name": "Lancaster Gate Underground Station",
    "lat": 51.511723,
    "lon": -0.175494,
    "modes": [
      "tube"
    ],
    "lines": [
      "Central"
    ],
    "child_stations": [
      "Lancaster Gate Underground Station"
    ]
  },
  {
    "name": "Liverpool Street Underground Station",
    "lat": 51.517372,
    "lon": -0.083182,
    "modes": [
      "overground",
      "tube",
      "elizabeth-line"
    ],
    "lines": [
      "Greater Anglia",
      "c2c",
      "Metropolitan",
      "Elizabeth line",
      "Circle",
      "Weaver",
      "Hammersmith & City",
      "Central"
    ],
    "child_stations": [
      "Liverpool Street Underground Station"
    ]
  },
  {
    "name": "Leyton Underground Station",
    "lat": 51.556589,
    "lon": -0.005523,
    "modes": [
      "tube"
    ],
    "lines": [
      "Central"
    ],
    "child_stations": [
      "Leyton Underground Station"
    ]
  },
  {
    "name": "Leytonstone Underground Station",
    "lat": 51.568324,
    "lon": 0.008194,
    "modes": [
      "tube"
    ],
    "lines": [
      "Central"
    ],
    "child_stations": [
      "Leytonstone Underground Station"
    ]
  },
  {
    "name": "Marble Arch Underground Station",
    "lat": 51.513424,
    "lon": -0.158953,
    "modes": [
      "tube"
    ],
    "lines": [
      "Central"
    ],
    "child_stations": [
      "Marble Arch Underground Station"
    ]
  },
  {
    "name": "Mile End Underground Station",
    "lat": 51.525122,
    "lon": -0.03364,
    "modes": [
      "tube"
    ],
    "lines": [
      "Central",
      "District",
      "Hammersmith & City"
    ],
    "child_stations": [
      "Mile End Underground Station"
    ]
  },
  {
    "name": "North Acton Underground Station",
    "lat": 51.523524,
    "lon": -0.259755,
    "modes": [
      "tube"
    ],
    "lines": [
      "Central"
    ],
    "child_stations": [
      "North Acton Underground Station"
    ]
  },
  {
    "name": "Newbury Park Underground Station",
    "lat": 51.575726,
    "lon": 0.090004,
    "modes": [
      "tube"
    ],
    "lines": [
      "Central"
    ],
    "child_stations": [
      "Newbury Park Underground Station"
    ]
  },
  {
    "name": "Notting Hill Gate Underground Station",
    "lat": 51.509128,
    "lon": -0.196104,
    "modes": [
      "tube"
    ],
    "lines": [
      "Central",
      "District",
      "Circle"
    ],
    "child_stations": [
      "Notting Hill Gate Underground Station"
    ]
  },
  {
    "name": "Northolt Underground Station",
    "lat": 51.548236,
    "lon": -0.368699,
    "modes": [
      "tube"
    ],
    "lines": [
      "Central"
    ],
    "child_stations": [
      "Northolt Underground Station"
    ]
  },
  {
    "name": "Perivale Underground Station",
    "lat": 51.536717,
    "lon": -0.323446,
    "modes": [
      "tube"
    ],
    "lines": [
      "Central"
    ],
    "child_stations": [
      "Perivale Underground Station"
    ]
  },
  {
    "name": "Queensway Underground Station",
    "lat": 51.510312,
    "lon": -0.187152,
    "modes": [
      "tube"
    ],
    "lines": [
      "Central"
    ],
    "child_stations": [
      "Queensway Underground Station"
    ]
  },
  {
    "name": "Redbridge Underground Station",
    "lat": 51.576243,
    "lon": 0.04536,
    "modes": [
      "tube"
    ],
    "lines": [
      "Central"
    ],
    "child_stations": [
      "Redbridge Underground Station"
    ]
  },
  {
    "name": "Ruislip Gardens Underground Station",
    "lat": 51.560736,
    "lon": -0.41071,
    "modes": [
      "tube"
    ],
    "lines": [
      "Central"
    ],
    "child_stations": [
      "Ruislip Gardens Underground Station"
    ]
  },
  {
    "name": "Roding Valley Underground Station",
    "lat": 51.617199,
    "lon": 0.043647,
    "modes": [
      "tube"
    ],
    "lines": [
      "Central"
    ],
    "child_stations": [
      "Roding Valley Underground Station"
    ]
  },
  {
    "name": "Shepherd's Bush (Central) Underground Station",
    "lat": 51.504376,
    "lon": -0.218813,
    "modes": [
      "overground",
      "tube"
    ],
    "lines": [
      "Central",
      "Mildmay"
    ],
    "child_stations": [
      "Shepherd's Bush (Central) Underground Station"
    ]
  },
  {
    "name": "Snaresbrook Underground Station",
    "lat": 51.580678,
    "lon": 0.02144,
    "modes": [
      "tube"
    ],
    "lines": [
      "Central"
    ],
    "child_stations": [
      "Snaresbrook Underground Station"
    ]
  },
  {
    "name": "St. Paul's Underground Station",
    "lat": 51.514936,
    "lon": -0.097567,
    "modes": [
      "tube"
    ],
    "lines": [
      "Central"
    ],
    "child_stations": [
      "St. Paul's Underground Station"
    ]
  },
  {
    "name": "South Ruislip Underground Station",
    "lat": 51.556853,
    "lon": -0.398915,
    "modes": [
      "tube"
    ],
    "lines": [
      "Central"
    ],
    "child_stations": [
      "South Ruislip Underground Station"
    ]
  },
  {
    "name": "Stratford Underground Station",
    "lat": 51.541806,
    "lon": -0.003458,
    "modes": [
      "dlr",
      "elizabeth-line",
      "overground",
      "tube"
    ],
    "lines": [
      "Greater Anglia",
      "c2c",
      "Jubilee",
      "Elizabeth line",
      "DLR",
      "Mildmay",
      "Central"
    ],
    "child_stations": [
      "Stratford Underground Station"
    ]
  },
  {
    "name": "South Woodford Underground Station",
    "lat": 51.591907,
    "lon": 0.027338,
    "modes": [
      "tube"
    ],
    "lines": [
      "Central"
    ],
    "child_stations": [
      "South Woodford Underground Station"
    ]
  },
  {
    "name": "Tottenham Court Road Underground Station",
    "lat": 51.516426,
    "lon": -0.13041,
    "modes": [
      "tube",
      "elizabeth-line"
    ],
    "lines": [
      "Central",
      "Elizabeth line"
    ],
    "child_stations": [
      "Tottenham Court Road Underground Station"
    ]
  },
  {
    "name": "Theydon Bois Underground Station",
    "lat": 51.671759,
    "lon": 0.103085,
    "modes": [
      "tube"
    ],
    "lines": [
      "Central"
    ],
    "child_stations": [
      "Theydon Bois Underground Station"
    ]
  },
  {
    "name": "White City Underground Station",
    "lat": 51.511959,
    "lon": -0.224297,
    "modes": [
      "tube"
    ],
    "lines": [
      "Central"
    ],
    "child_stations": [
      "White City Underground Station"
    ]
  },
  {
    "name": "Woodford Underground Station",
    "lat": 51.606899,
    "lon": 0.03397,
    "modes": [
      "tube"
    ],
    "lines": [
      "Central"
    ],
    "child_stations": [
      "Woodford Underground Station"
    ]
  },
  {
    "name": "West Ruislip Underground Station",
    "lat": 51.569688,
    "lon": -0.437886,
    "modes": [
      "tube"
    ],
    "lines": [
      "Central"
    ],
    "child_stations": [
      "West Ruislip Underground Station"
    ]
  },
  {
    "name": "Wanstead Underground Station",
    "lat": 51.575501,
    "lon": 0.028527,
    "modes": [
      "tube"
    ],
    "lines": [
      "Central"
    ],
    "child_stations": [
      "Wanstead Underground Station"
    ]
  },
  {
    "name": "West Acton Underground Station",
    "lat": 51.518001,
    "lon": -0.28098,
    "modes": [
      "tube"
    ],
    "lines": [
      "Central"
    ],
    "child_stations": [
      "West Acton Underground Station"
    ]
  },
  {
    "name": "Aldgate Underground Station",
    "lat": 51.514246,
    "lon": -0.075689,
    "modes": [
      "tube"
    ],
    "lines": [
      "Metropolitan",
      "Circle"
    ],
    "child_stations": [
      "Aldgate Underground Station"
    ]
  },
  {
    "name": "Barbican Underground Station",
    "lat": 51.520275,
    "lon": -0.097993,
    "modes": [
      "tube"
    ],
    "lines": [
      "Circle",
      "Metropolitan",
      "Hammersmith & City"
    ],
    "child_stations": [
      "Barbican Underground Station"
    ]
  },
  {
    "name": "Blackfriars Underground Station",
    "lat": 51.511581,
    "lon": -0.103659,
    "modes": [
      "tube"
    ],
    "lines": [
      "District",
      "Circle"
    ],
    "child_stations": [
      "Blackfriars Underground Station"
    ]
  },
  {
    "name": "Bayswater Underground Station",
    "lat": 51.512284,
    "lon": -0.187938,
    "modes": [
      "tube"
    ],
    "lines": [
      "District",
      "Circle"
    ],
    "child_stations": [
      "Bayswater Underground Station"
    ]
  },
  {
    "name": "Cannon Street Underground Station",
    "lat": 51.51151,
    "lon": -0.090432,
    "modes": [
      "tube"
    ],
    "lines": [
      "District",
      "Circle"
    ],
    "child_stations": [
      "Cannon Street Underground Station"
    ]
  },
  {
    "name": "Edgware Road (Circle Line) Underground Station",
    "lat": 51.519858,
    "lon": -0.167832,
    "modes": [
      "tube"
    ],
    "lines": [
      "Circle",
      "District",
      "Hammersmith & City"
    ],
    "child_stations": [
      "Edgware Road (Circle Line) Underground Station"
    ]
  },
  {
    "name": "Euston Square Underground Station",
    "lat": 51.525604,
    "lon": -0.135829,
    "modes": [
      "tube"
    ],
    "lines": [
      "Circle",
      "Metropolitan",
      "Hammersmith & City"
    ],
    "child_stations": [
      "Euston Square Underground Station"
    ]
  },
  {
    "name": "Farringdon Underground Station",
    "lat": 51.520252,
    "lon": -0.104913,
    "modes": [
      "tube",
      "elizabeth-line"
    ],
    "lines": [
      "Circle",
      "Metropolitan",
      "Elizabeth line",
      "Hammersmith & City"
    ],
    "child_stations": [
      "Farringdon Underground Station"
    ]
  },
  {
    "name": "Goldhawk Road Underground Station",
    "lat": 51.502005,
    "lon": -0.226715,
    "modes": [
      "tube"
    ],
    "lines": [
      "Circle",
      "Hammersmith & City"
    ],
    "child_stations": [
      "Goldhawk Road Underground Station"
    ]
  },
  {
    "name": "Great Portland Street Underground Station",
    "lat": 51.52384,
    "lon": -0.144262,
    "modes": [
      "tube"
    ],
    "lines": [
      "Circle",
      "Metropolitan",
      "Hammersmith & City"
    ],
    "child_stations": [
      "Great Portland Street Underground Station"
    ]
  },
  {
    "name": "Gloucester Road Underground Station",
    "lat": 51.494316,
    "lon": -0.182658,
    "modes": [
      "tube"
    ],
    "lines": [
      "Piccadilly",
      "District",
      "Circle"
    ],
    "child_stations": [
      "Gloucester Road Underground Station"
    ]
  },
  {
    "name": "Hammersmith (H&C Line) Underground Station",
    "lat": 51.49331,
    "lon": -0.2243,
    "modes": [
      "tube"
    ],
    "lines": [
      "Circle",
      "Piccadilly",
      "District",
      "Hammersmith & City"
    ],
    "child_stations": [
      "Hammersmith (H&C Line) Underground Station"
    ]
  },
  {
    "name": "High Street Kensington Underground Station",
    "lat": 51.501055,
    "lon": -0.192792,
    "modes": [
      "tube"
    ],
    "lines": [
      "District",
      "Circle"
    ],
    "child_stations": [
      "High Street Kensington Underground Station"
    ]
  },
  {
    "name": "King's Cross St. Pancras Underground Station",
    "lat": 51.530663,
    "lon": -0.123194,
    "modes": [
      "tube"
    ],
    "lines": [
      "Piccadilly",
      "Victoria",
      "Metropolitan",
      "Circle",
      "Hammersmith & City"
    ],
    "child_stations": [
      "King's Cross St. Pancras Underground Station"
    ]
  },
  {
    "name": "Ladbroke Grove Underground Station",
    "lat": 51.517449,
    "lon": -0.210391,
    "modes": [
      "tube"
    ],
    "lines": [
      "Circle",
      "Hammersmith & City"
    ],
    "child_stations": [
      "Ladbroke Grove Underground Station"
    ]
  },
  {
    "name": "Latimer Road Underground Station",
    "lat": 51.513389,
    "lon": -0.217799,
    "modes": [
      "tube"
    ],
    "lines": [
      "Circle",
      "Hammersmith & City"
    ],
    "child_stations": [
      "Latimer Road Underground Station"
    ]
  },
  {
    "name": "Moorgate Underground Station",
    "lat": 51.518176,
    "lon": -0.088322,
    "modes": [
      "tube"
    ],
    "lines": [
      "Circle",
      "Metropolitan",
      "Hammersmith & City"
    ],
    "child_stations": [
      "Moorgate Underground Station"
    ]
  },
  {
    "name": "Monument Underground Station",
    "lat": 51.5107,
    "lon": -0.085969,
    "modes": [
      "tube"
    ],
    "lines": [
      "District",
      "Circle"
    ],
    "child_stations": [
      "Monument Underground Station"
    ]
  },
  {
    "name": "Mansion House Underground Station",
    "lat": 51.512117,
    "lon": -0.094009,
    "modes": [
      "tube"
    ],
    "lines": [
      "District",
      "Circle"
    ],
    "child_stations": [
      "Mansion House Underground Station"
    ]
  },
  {
    "name": "Royal Oak Underground Station",
    "lat": 51.519113,
    "lon": -0.188748,
    "modes": [
      "tube"
    ],
    "lines": [
      "Circle",
      "Hammersmith & City"
    ],
    "child_stations": [
      "Royal Oak Underground Station"
    ]
  },
  {
    "name": "Shepherd's Bush Market Underground Station",
    "lat": 51.505579,
    "lon": -0.226375,
    "modes": [
      "tube"
    ],
    "lines": [
      "Circle",
      "Hammersmith & City"
    ],
    "child_stations": [
      "Shepherd's Bush Market Underground Station"
    ]
  },
  {
    "name": "St. James's Park Underground Station",
    "lat": 51.499544,
    "lon": -0.133608,
    "modes": [
      "tube"
    ],
    "lines": [
      "District",
      "Circle"
    ],
    "child_stations": [
      "St. James's Park Underground Station"
    ]
  },
  {
    "name": "South Kensington Underground Station",
    "lat": 51.494094,
    "lon": -0.174138,
    "modes": [
      "tube"
    ],
    "lines": [
      "Piccadilly",
      "District",
      "Circle"
    ],
    "child_stations": [
      "South Kensington Underground Station"
    ]
  },
  {
    "name": "Sloane Square Underground Station",
    "lat": 51.49227,
    "lon": -0.156377,
    "modes": [
      "tube"
    ],
    "lines": [
      "District",
      "Circle"
    ],
    "child_stations": [
      "Sloane Square Underground Station"
    ]
  },
  {
    "name": "Temple Underground Station",
    "lat": 51.511006,
    "lon": -0.11426,
    "modes": [
      "tube"
    ],
    "lines": [
      "District",
      "Circle"
    ],
    "child_stations": [
      "Temple Underground Station"
    ]
  },
  {
    "name": "Tower Hill Underground Station",
    "lat": 51.509971,
    "lon": -0.076546,
    "modes": [
      "tube"
    ],
    "lines": [
      "District",
      "Circle"
    ],
    "child_stations": [
      "Tower Hill Underground Station"
    ]
  },
  {
    "name": "Victoria Underground Station",
    "lat": 51.496359,
    "lon": -0.143102,
    "modes": [
      "tube"
    ],
    "lines": [
      "Victoria",
      "District",
      "Circle"
    ],
    "child_stations": [
      "Victoria Underground Station"
    ]
  },
  {
    "name": "Wood Lane Underground Station",
    "lat": 51.509669,
    "lon": -0.22453,
    "modes": [
      "tube"
    ],
    "lines": [
      "Circle",
      "Hammersmith & City"
    ],
    "child_stations": [
      "Wood Lane Underground Station"
    ]
  },
  {
    "name": "Westminster Underground Station",
    "lat": 51.50132,
    "lon": -0.124861,
    "modes": [
      "tube"
    ],
    "lines": [
      "Circle",
      "District",
      "Jubilee"
    ],
    "child_stations": [
      "Westminster Underground Station"
    ]
  },
  {
    "name": "Westbourne Park Underground Station",
    "lat": 51.52111,
    "lon": -0.201065,
    "modes": [
      "tube"
    ],
    "lines": [
      "Circle",
      "Hammersmith & City"
    ],
    "child_stations": [
      "Westbourne Park Underground Station"
    ]
  },
  {
    "name": "Acton Town Underground Station",
    "lat": 51.503057,
    "lon": -0.280462,
    "modes": [
      "tube"
    ],
    "lines": [
      "Piccadilly",
      "District"
    ],
    "child_stations": [
      "Acton Town Underground Station"
    ]
  },
  {
    "name": "Aldgate East Underground Station",
    "lat": 51.515037,
    "lon": -0.072384,
    "modes": [
      "tube"
    ],
    "lines": [
      "District",
      "Hammersmith & City"
    ],
    "child_stations": [
      "Aldgate East Underground Station"
    ]
  },
  {
    "name": "Bromley-by-Bow Underground Station",
    "lat": 51.524839,
    "lon": -0.011538,
    "modes": [
      "tube"
    ],
    "lines": [
      "District",
      "Hammersmith & City"
    ],
    "child_stations": [
      "Bromley-by-Bow Underground Station"
    ]
  },
  {
    "name": "Becontree Underground Station",
    "lat": 51.540331,
    "lon": 0.127016,
    "modes": [
      "tube"
    ],
    "lines": [
      "District"
    ],
    "child_stations": [
      "Becontree Underground Station"
    ]
  },
  {
    "name": "Barking Underground Station",
    "lat": 51.539321,
    "lon": 0.081053,
    "modes": [
      "overground",
      "tube"
    ],
    "lines": [
      "District",
      "c2c",
      "Suffragette",
      "Hammersmith & City"
    ],
    "child_stations": [
      "Barking Underground Station"
    ]
  },
  {
    "name": "Barons Court Underground Station",
    "lat": 51.490311,
    "lon": -0.213427,
    "modes": [
      "tube"
    ],
    "lines": [
      "Piccadilly",
      "District"
    ],
    "child_stations": [
      "Barons Court Underground Station"
    ]
  },
  {
    "name": "Bow Road Underground Station",
    "lat": 51.52694,
    "lon": -0.025128,
    "modes": [
      "tube"
    ],
    "lines": [
      "District",
      "Hammersmith & City"
    ],
    "child_stations": [
      "Bow Road Underground Station"
    ]
  },
  {
    "name": "Chiswick Park Underground Station",
    "lat": 51.494627,
    "lon": -0.267972,
    "modes": [
      "tube"
    ],
    "lines": [
      "District"
    ],
    "child_stations": [
      "Chiswick Park Underground Station"
    ]
  },
  {
    "name": "Dagenham East Underground Station",
    "lat": 51.544096,
    "lon": 0.166017,
    "modes": [
      "tube"
    ],
    "lines": [
      "District"
    ],
    "child_stations": [
      "Dagenham East Underground Station"
    ]
  },
  {
    "name": "Dagenham Heathway Underground Station",
    "lat": 51.541639,
    "lon": 0.147527,
    "modes": [
      "tube"
    ],
    "lines": [
      "District"
    ],
    "child_stations": [
      "Dagenham Heathway Underground Station"
    ]
  },
  {
    "name": "Ealing Common Underground Station",
    "lat": 51.51014,
    "lon": -0.288265,
    "modes": [
      "tube"
    ],
    "lines": [
      "Piccadilly",
      "District"
    ],
    "child_stations": [
      "Ealing Common Underground Station"
    ]
  },
  {
    "name": "Earl's Court Underground Station",
    "lat": 51.492063,
    "lon": -0.193378,
    "modes": [
      "tube"
    ],
    "lines": [
      "Piccadilly",
      "District"
    ],
    "child_stations": [
      "Earl's Court Underground Station"
    ]
  },
  {
    "name": "East Ham Underground Station",
    "lat": 51.538948,
    "lon": 0.051186,
    "modes": [
      "tube"
    ],
    "lines": [
      "District",
      "Hammersmith & City"
    ],
    "child_stations": [
      "East Ham Underground Station"
    ]
  },
  {
    "name": "Elm Park Underground Station",
    "lat": 51.549775,
    "lon": 0.19864,
    "modes": [
      "tube"
    ],
    "lines": [
      "District"
    ],
    "child_stations": [
      "Elm Park Underground Station"
    ]
  },
  {
    "name": "East Putney Underground Station",
    "lat": 51.459205,
    "lon": -0.211,
    "modes": [
      "tube"
    ],
    "lines": [
      "District"
    ],
    "child_stations": [
      "East Putney Underground Station"
    ]
  },
  {
    "name": "Fulham Broadway Underground Station",
    "lat": 51.480081,
    "lon": -0.195422,
    "modes": [
      "tube"
    ],
    "lines": [
      "District"
    ],
    "child_stations": [
      "Fulham Broadway Underground Station"
    ]
  },
  {
    "name": "Gunnersbury Underground Station",
    "lat": 51.491803,
    "lon": -0.275267,
    "modes": [
      "overground",
      "tube"
    ],
    "lines": [
      "District",
      "Mildmay"
    ],
    "child_stations": [
      "Gunnersbury Underground Station"
    ]
  },
  {
    "name": "Hornchurch Underground Station",
    "lat": 51.554093,
    "lon": 0.219116,
    "modes": [
      "tube"
    ],
    "lines": [
      "District"
    ],
    "child_stations": [
      "Hornchurch Underground Station"
    ]
  },
  {
    "name": "Kensington (Olympia) Underground Station",
    "lat": 51.497624,
    "lon": -0.210015,
    "modes": [
      "overground",
      "tube"
    ],
    "lines": [
      "District",
      "Mildmay"
    ],
    "child_stations": [
      "Kensington (Olympia) Underground Station"
    ]
  },
  {
    "name": "Kew Gardens Underground Station",
    "lat": 51.477058,
    "lon": -0.285241,
    "modes": [
      "overground",
      "tube"
    ],
    "lines": [
      "District",
      "Mildmay"
    ],
    "child_stations": [
      "Kew Gardens Underground Station"
    ]
  },
  {
    "name": "Plaistow Underground Station",
    "lat": 51.531341,
    "lon": 0.017451,
    "modes": [
      "tube"
    ],
    "lines": [
      "District",
      "Hammersmith & City"
    ],
    "child_stations": [
      "Plaistow Underground Station"
    ]
  },
  {
    "name": "Parsons Green Underground Station",
    "lat": 51.475277,
    "lon": -0.20117,
    "modes": [
      "tube"
    ],
    "lines": [
      "District"
    ],
    "child_stations": [
      "Parsons Green Underground Station"
    ]
  },
  {
    "name": "Putney Bridge Underground Station",
    "lat": 51.468262,
    "lon": -0.208731,
    "modes": [
      "tube"
    ],
    "lines": [
      "District"
    ],
    "child_stations": [
      "Putney Bridge Underground Station"
    ]
  },
  {
    "name": "Richmond Underground Station",
    "lat": 51.463237,
    "lon": -0.301336,
    "modes": [
      "overground",
      "tube"
    ],
    "lines": [
      "South Western Railway",
      "District",
      "Mildmay"
    ],
    "child_stations": [
      "Richmond Underground Station"
    ]
  },
  {
    "name": "Ravenscourt Park Underground Station",
    "lat": 51.494122,
    "lon": -0.235881,
    "modes": [
      "tube"
    ],
    "lines": [
      "District"
    ],
    "child_stations": [
      "Ravenscourt Park Underground Station"
    ]
  },
  {
    "name": "Stamford Brook Underground Station",
    "lat": 51.494917,
    "lon": -0.245704,
    "modes": [
      "tube"
    ],
    "lines": [
      "District"
    ],
    "child_stations": [
      "Stamford Brook Underground Station"
    ]
  },
  {
    "name": "Southfields Underground Station",
    "lat": 51.445073,
    "lon": -0.206602,
    "modes": [
      "tube"
    ],
    "lines": [
      "District"
    ],
    "child_stations": [
      "Southfields Underground Station"
    ]
  },
  {
    "name": "Stepney Green Underground Station",
    "lat": 51.521858,
    "lon": -0.046596,
    "modes": [
      "tube"
    ],
    "lines": [
      "District",
      "Hammersmith & City"
    ],
    "child_stations": [
      "Stepney Green Underground Station"
    ]
  },
  {
    "name": "Turnham Green Underground Station",
    "lat": 51.495148,
    "lon": -0.254555,
    "modes": [
      "tube"
    ],
    "lines": [
      "Piccadilly",
      "District"
    ],
    "child_stations": [
      "Turnham Green Underground Station"
    ]
  },
  {
    "name": "Upminster Bridge Underground Station",
    "lat": 51.55856,
    "lon": 0.235809,
    "modes": [
      "tube"
    ],
    "lines": [
      "District"
    ],
    "child_stations": [
      "Upminster Bridge Underground Station"
    ]
  },
  {
    "name": "Upton Park Underground Station",
    "lat": 51.53534,
    "lon": 0.035263,
    "modes": [
      "tube"
    ],
    "lines": [
      "District",
      "Hammersmith & City"
    ],
    "child_stations": [
      "Upton Park Underground Station"
    ]
  },
  {
    "name": "Upminster Underground Station",
    "lat": 51.559063,
    "lon": 0.250882,
    "modes": [
      "overground",
      "tube"
    ],
    "lines": [
      "Liberty",
      "c2c",
      "District"
    ],
    "child_stations": [
      "Upminster Underground Station"
    ]
  },
  {
    "name": "Upney Underground Station",
    "lat": 51.538372,
    "lon": 0.10153,
    "modes": [
      "tube"
    ],
    "lines": [
      "District"
    ],
    "child_stations": [
      "Upney Underground Station"
    ]
  },
  {
    "name": "West Brompton Underground Station",
    "lat": 51.487268,
    "lon": -0.195599,
    "modes": [
      "overground",
      "tube"
    ],
    "lines": [
      "District",
      "Mildmay"
    ],
    "child_stations": [
      "West Brompton Underground Station"
    ]
  },
  {
    "name": "West Ham Underground Station",
    "lat": 51.528136,
    "lon": 0.005055,
    "modes": [
      "dlr",
      "tube"
    ],
    "lines": [
      "Hammersmith & City",
      "DLR",
      "District",
      "Jubilee"
    ],
    "child_stations": [
      "West Ham Underground Station"
    ]
  },
  {
    "name": "Wimbledon Underground Station",
    "lat": 51.421207,
    "lon": -0.206573,
    "modes": [
      "tube"
    ],
    "lines": [
      "District"
    ],
    "child_stations": [
      "Wimbledon Underground Station"
    ]
  },
  {
    "name": "Wimbledon Park Underground Station",
    "lat": 51.434573,
    "lon": -0.199719,
    "modes": [
      "tube"
    ],
    "lines": [
      "District"
    ],
    "child_stations": [
      "Wimbledon Park Underground Station"
    ]
  },
  {
    "name": "West Kensington Underground Station",
    "lat": 51.490459,
    "lon": -0.206636,
    "modes": [
      "tube"
    ],
    "lines": [
      "District"
    ],
    "child_stations": [
      "West Kensington Underground Station"
    ]
  },
  {
    "name": "Whitechapel Underground Station",
    "lat": 51.519518,
    "lon": -0.059971,
    "modes": [
      "overground",
      "tube",
      "elizabeth-line"
    ],
    "lines": [
      "Windrush",
      "District",
      "Elizabeth line",
      "Hammersmith & City"
    ],
    "child_stations": [
      "Whitechapel Underground Station"
    ]
  },
  {
    "name": "Bermondsey Underground Station",
    "lat": 51.49775,
    "lon": -0.063993,
    "modes": [
      "tube"
    ],
    "lines": [
      "Jubilee"
    ],
    "child_stations": [
      "Bermondsey Underground Station"
    ]
  },
  {
    "name": "Canning Town Underground Station",
    "lat": 51.513584,
    "lon": 0.008322,
    "modes": [
      "dlr",
      "tube"
    ],
    "lines": [
      "Jubilee",
      "DLR"
    ],
    "child_stations": [
      "Canning Town Underground Station"
    ]
  },
  {
    "name": "Canons Park Underground Station",
    "lat": 51.607701,
    "lon": -0.294693,
    "modes": [
      "tube"
    ],
    "lines": [
      "Jubilee"
    ],
    "child_stations": [
      "Canons Park Underground Station"
    ]
  },
  {
    "name": "Canada Water Underground Station",
    "lat": 51.497931,
    "lon": -0.049405,
    "modes": [
      "overground",
      "tube"
    ],
    "lines": [
      "Windrush",
      "Jubilee"
    ],
    "child_stations": [
      "Canada Water Underground Station"
    ]
  },
  {
    "name": "Canary Wharf Underground Station",
    "lat": 51.503488,
    "lon": -0.018246,
    "modes": [
      "dlr",
      "tube",
      "elizabeth-line"
    ],
    "lines": [
      "Jubilee",
      "Elizabeth line",
      "DLR"
    ],
    "child_stations": [
      "Canary Wharf Underground Station"
    ]
  },
  {
    "name": "Dollis Hill Underground Station",
    "lat": 51.551955,
    "lon": -0.239068,
    "modes": [
      "tube"
    ],
    "lines": [
      "Jubilee"
    ],
    "child_stations": [
      "Dollis Hill Underground Station"
    ]
  },
  {
    "name": "Finchley Road Underground Station",
    "lat": 51.546825,
    "lon": -0.179845,
    "modes": [
      "tube"
    ],
    "lines": [
      "Metropolitan",
      "Jubilee"
    ],
    "child_stations": [
      "Finchley Road Underground Station"
    ]
  },
  {
    "name": "Green Park Underground Station",
    "lat": 51.506947,
    "lon": -0.142787,
    "modes": [
      "tube"
    ],
    "lines": [
      "Victoria",
      "Piccadilly",
      "Jubilee"
    ],
    "child_stations": [
      "Green Park Underground Station"
    ]
  },
  {
    "name": "Kilburn Underground Station",
    "lat": 51.547183,
    "lon": -0.204248,
    "modes": [
      "tube"
    ],
    "lines": [
      "Jubilee"
    ],
    "child_stations": [
      "Kilburn Underground Station"
    ]
  },
  {
    "name": "Kingsbury Underground Station",
    "lat": 51.584845,
    "lon": -0.27879,
    "modes": [
      "tube"
    ],
    "lines": [
      "Jubilee"
    ],
    "child_stations": [
      "Kingsbury Underground Station"
    ]
  },
  {
    "name": "London Bridge Underground Station",
    "lat": 51.505721,
    "lon": -0.088873,
    "modes": [
      "tube"
    ],
    "lines": [
      "Jubilee"
    ],
    "child_stations": [
      "London Bridge Underground Station"
    ]
  },
  {
    "name": "Neasden Underground Station",
    "lat": 51.553986,
    "lon": -0.249837,
    "modes": [
      "tube"
    ],
    "lines": [
      "Jubilee"
    ],
    "child_stations": [
      "Neasden Underground Station"
    ]
  },
  {
    "name": "North Greenwich Underground Station",
    "lat": 51.50047,
    "lon": 0.004287,
    "modes": [
      "tube"
    ],
    "lines": [
      "Jubilee"
    ],
    "child_stations": [
      "North Greenwich Underground Station"
    ]
  },
  {
    "name": "Queensbury Underground Station",
    "lat": 51.594188,
    "lon": -0.286219,
    "modes": [
      "tube"
    ],
    "lines": [
      "Jubilee"
    ],
    "child_stations": [
      "Queensbury Underground Station"
    ]
  },
  {
    "name": "St. John's Wood Underground Station",
    "lat": 51.534521,
    "lon": -0.173948,
    "modes": [
      "tube"
    ],
    "lines": [
      "Jubilee"
    ],
    "child_stations": [
      "St. John's Wood Underground Station"
    ]
  },
  {
    "name": "Stanmore Underground Station",
    "lat": 51.619839,
    "lon": -0.303266,
    "modes": [
      "tube"
    ],
    "lines": [
      "Jubilee"
    ],
    "child_stations": [
      "Stanmore Underground Station"
    ]
  },
  {
    "name": "Swiss Cottage Underground Station",
    "lat": 51.543681,
    "lon": -0.174894,
    "modes": [
      "tube"
    ],
    "lines": [
      "Jubilee"
    ],
    "child_stations": [
      "Swiss Cottage Underground Station"
    ]
  },
  {
    "name": "Southwark Underground Station",
    "lat": 51.50427,
    "lon": -0.105331,
    "modes": [
      "tube"
    ],
    "lines": [
      "Jubilee"
    ],
    "child_stations": [
      "Southwark Underground Station"
    ]
  },
  {
    "name": "West Hampstead Underground Station",
    "lat": 51.546638,
    "lon": -0.191059,
    "modes": [
      "overground",
      "tube"
    ],
    "lines": [
      "Mildmay",
      "Jubilee"
    ],
    "child_stations": [
      "West Hampstead Underground Station"
    ]
  },
  {
    "name": "Willesden Green Underground Station",
    "lat": 51.549146,
    "lon": -0.221537,
    "modes": [
      "tube"
    ],
    "lines": [
      "Jubilee"
    ],
    "child_stations": [
      "Willesden Green Underground Station"
    ]
  },
  {
    "name": "Wembley Park Underground Station",
    "lat": 51.563198,
    "lon": -0.279262,
    "modes": [
      "tube"
    ],
    "lines": [
      "Metropolitan",
      "Jubilee"
    ],
    "child_stations": [
      "Wembley Park Underground Station"
    ]
  },
  {
    "name": "Amersham Underground Station",
    "lat": 51.674126,
    "lon": -0.607714,
    "modes": [
      "tube"
    ],
    "lines": [
      "Metropolitan"
    ],
    "child_stations": [
      "Amersham Underground Station"
    ]
  },
  {
    "name": "Chalfont & Latimer Underground Station",
    "lat": 51.667985,
    "lon": -0.560689,
    "modes": [
      "tube"
    ],
    "lines": [
      "Metropolitan"
    ],
    "child_stations": [
      "Chalfont & Latimer Underground Station"
    ]
  },
  {
    "name": "Chesham Underground Station",
    "lat": 51.705208,
    "lon": -0.611247,
    "modes": [
      "tube"
    ],
    "lines": [
      "Metropolitan"
    ],
    "child_stations": [
      "Chesham Underground Station"
    ]
  },
  {
    "name": "Croxley Underground Station",
    "lat": 51.647044,
    "lon": -0.441718,
    "modes": [
      "tube"
    ],
    "lines": [
      "Metropolitan"
    ],
    "child_stations": [
      "Croxley Underground Station"
    ]
  },
  {
    "name": "Chorleywood Underground Station",
    "lat": 51.654358,
    "lon": -0.518461,
    "modes": [
      "tube"
    ],
    "lines": [
      "Metropolitan"
    ],
    "child_stations": [
      "Chorleywood Underground Station"
    ]
  },
  {
    "name": "Eastcote Underground Station",
    "lat": 51.576506,
    "lon": -0.397373,
    "modes": [
      "tube"
    ],
    "lines": [
      "Piccadilly",
      "Metropolitan"
    ],
    "child_stations": [
      "Eastcote Underground Station"
    ]
  },
  {
    "name": "Hillingdon Underground Station",
    "lat": 51.553715,
    "lon": -0.449828,
    "modes": [
      "tube"
    ],
    "lines": [
      "Piccadilly",
      "Metropolitan"
    ],
    "child_stations": [
      "Hillingdon Underground Station"
    ]
  },
  {
    "name": "Harrow-on-the-Hill Underground Station",
    "lat": 51.579195,
    "lon": -0.337225,
    "modes": [
      "tube"
    ],
    "lines": [
      "Metropolitan"
    ],
    "child_stations": [
      "Harrow-on-the-Hill Underground Station"
    ]
  },
  {
    "name": "Ickenham Underground Station",
    "lat": 51.561992,
    "lon": -0.442001,
    "modes": [
      "tube"
    ],
    "lines": [
      "Piccadilly",
      "Metropolitan"
    ],
    "child_stations": [
      "Ickenham Underground Station"
    ]
  },
  {
    "name": "Moor Park Underground Station",
    "lat": 51.629845,
    "lon": -0.432454,
    "modes": [
      "tube"
    ],
    "lines": [
      "Metropolitan"
    ],
    "child_stations": [
      "Moor Park Underground Station"
    ]
  },
  {
    "name": "North Harrow Underground Station",
    "lat": 51.584872,
    "lon": -0.362408,
    "modes": [
      "tube"
    ],
    "lines": [
      "Metropolitan"
    ],
    "child_stations": [
      "North Harrow Underground Station"
    ]
  },
  {
    "name": "Northwick Park Underground Station",
    "lat": 51.578481,
    "lon": -0.318056,
    "modes": [
      "tube"
    ],
    "lines": [
      "Metropolitan"
    ],
    "child_stations": [
      "Northwick Park Underground Station"
    ]
  },
  {
    "name": "Northwood Underground Station",
    "lat": 51.611053,
    "lon": -0.423829,
    "modes": [
      "tube"
    ],
    "lines": [
      "Metropolitan"
    ],
    "child_stations": [
      "Northwood Underground Station"
    ]
  },
  {
    "name": "Northwood Hills Underground Station",
    "lat": 51.600572,
    "lon": -0.409464,
    "modes": [
      "tube"
    ],
    "lines": [
      "Metropolitan"
    ],
    "child_stations": [
      "Northwood Hills Underground Station"
    ]
  },
  {
    "name": "Pinner Underground Station",
    "lat": 51.592901,
    "lon": -0.381161,
    "modes": [
      "tube"
    ],
    "lines": [
      "Metropolitan"
    ],
    "child_stations": [
      "Pinner Underground Station"
    ]
  },
  {
    "name": "Preston Road Underground Station",
    "lat": 51.571972,
    "lon": -0.295107,
    "modes": [
      "tube"
    ],
    "lines": [
      "Metropolitan"
    ],
    "child_stations": [
      "Preston Road Underground Station"
    ]
  },
  {
    "name": "Rickmansworth Underground Station",
    "lat": 51.640207,
    "lon": -0.473703,
    "modes": [
      "tube"
    ],
    "lines": [
      "Metropolitan"
    ],
    "child_stations": [
      "Rickmansworth Underground Station"
    ]
  },
  {
    "name": "Ruislip Manor Underground Station",
    "lat": 51.573202,
    "lon": -0.412973,
    "modes": [
      "tube"
    ],
    "lines": [
      "Piccadilly",
      "Metropolitan"
    ],
    "child_stations": [
      "Ruislip Manor Underground Station"
    ]
  },
  {
    "name": "Ruislip Underground Station",
    "lat": 51.571354,
    "lon": -0.421898,
    "modes": [
      "tube"
    ],
    "lines": [
      "Piccadilly",
      "Metropolitan"
    ],
    "child_stations": [
      "Ruislip Underground Station"
    ]
  },
  {
    "name": "Rayners Lane Underground Station",
    "lat": 51.575147,
    "lon": -0.371127,
    "modes": [
      "tube"
    ],
    "lines": [
      "Piccadilly",
      "Metropolitan"
    ],
    "child_stations": [
      "Rayners Lane Underground Station"
    ]
  },
  {
    "name": "Uxbridge Underground Station",
    "lat": 51.546565,
    "lon": -0.477949,
    "modes": [
      "tube"
    ],
    "lines": [
      "Piccadilly",
      "Metropolitan"
    ],
    "child_stations": [
      "Uxbridge Underground Station"
    ]
  },
  {
    "name": "Watford Underground Station",
    "lat": 51.657446,
    "lon": -0.417377,
    "modes": [
      "tube"
    ],
    "lines": [
      "Metropolitan"
    ],
    "child_stations": [
      "Watford Underground Station"
    ]
  },
  {
    "name": "West Harrow Underground Station",
    "lat": 51.57971,
    "lon": -0.3534,
    "modes": [
      "tube"
    ],
    "lines": [
      "Metropolitan"
    ],
    "child_stations": [
      "West Harrow Underground Station"
    ]
  },
  {
    "name": "Battersea Power Station Underground Station",
    "lat": 51.479932,
    "lon": -0.142142,
    "modes": [
      "tube"
    ],
    "lines": [],
    "child_stations": [
      "Battersea Power Station Underground Station"
    ]
  },
  {
    "name": "Archway Underground Station",
    "lat": 51.565478,
    "lon": -0.134819,
    "modes": [
      "tube"
    ],
    "lines": [],
    "child_stations": [
      "Archway Underground Station"
    ]
  },
  {
    "name": "Angel Underground Station",
    "lat": 51.532624,
    "lon": -0.105898,
    "modes": [
      "tube"
    ],
    "lines": [],
    "child_stations": [
      "Angel Underground Station"
    ]
  },
  {
    "name": "Balham Underground Station",
    "lat": 51.443288,
    "lon": -0.152997,
    "modes": [
      "tube"
    ],
    "lines": [],
    "child_stations": [
      "Balham Underground Station"
    ]
  },
  {
    "name": "Borough Underground Station",
    "lat": 51.501199,
    "lon": -0.09337,
    "modes": [
      "tube"
    ],
    "lines": [],
    "child_stations": [
      "Borough Underground Station"
    ]
  },
  {
    "name": "Burnt Oak Underground Station",
    "lat": 51.602774,
    "lon": -0.264048,
    "modes": [
      "tube"
    ],
    "lines": [],
    "child_stations": [
      "Burnt Oak Underground Station"
    ]
  },
  {
    "name": "Brent Cross Underground Station",
    "lat": 51.57665,
    "lon": -0.213622,
    "modes": [
      "tube"
    ],
    "lines": [],
    "child_stations": [
      "Brent Cross Underground Station"
    ]
  },
  {
    "name": "Belsize Park Underground Station",
    "lat": 51.550529,
    "lon": -0.164783,
    "modes": [
      "tube"
    ],
    "lines": [],
    "child_stations": [
      "Belsize Park Underground Station"
    ]
  },
  {
    "name": "Chalk Farm Underground Station",
    "lat": 51.544118,
    "lon": -0.153388,
    "modes": [
      "tube"
    ],
    "lines": [],
    "child_stations": [
      "Chalk Farm Underground Station"
    ]
  },
  {
    "name": "Colindale Underground Station",
    "lat": 51.595424,
    "lon": -0.249919,
    "modes": [
      "tube"
    ],
    "lines": [],
    "child_stations": [
      "Colindale Underground Station"
    ]
  },
  {
    "name": "Clapham Common Underground Station",
    "lat": 51.461742,
    "lon": -0.138317,
    "modes": [
      "tube"
    ],
    "lines": [],
    "child_stations": [
      "Clapham Common Underground Station"
    ]
  },
  {
    "name": "Clapham North Underground Station",
    "lat": 51.465135,
    "lon": -0.130016,
    "modes": [
      "tube"
    ],
    "lines": [],
    "child_stations": [
      "Clapham North Underground Station"
    ]
  },
  {
    "name": "Clapham South Underground Station",
    "lat": 51.452654,
    "lon": -0.147582,
    "modes": [
      "tube"
    ],
    "lines": [],
    "child_stations": [
      "Clapham South Underground Station"
    ]
  },
  {
    "name": "Colliers Wood Underground Station",
    "lat": 51.41816,
    "lon": -0.178086,
    "modes": [
      "tube"
    ],
    "lines": [],
    "child_stations": [
      "Colliers Wood Underground Station"
    ]
  },
  {
    "name": "Camden Town Underground Station",
    "lat": 51.539292,
    "lon": -0.14274,
    "modes": [
      "tube"
    ],
    "lines": [],
    "child_stations": [
      "Camden Town Underground Station"
    ]
  },
  {
    "name": "East Finchley Underground Station",
    "lat": 51.587131,
    "lon": -0.165012,
    "modes": [
      "tube"
    ],
    "lines": [],
    "child_stations": [
      "East Finchley Underground Station"
    ]
  },
  {
    "name": "Edgware Underground Station",
    "lat": 51.613653,
    "lon": -0.274928,
    "modes": [
      "tube"
    ],
    "lines": [],
    "child_stations": [
      "Edgware Underground Station"
    ]
  },
  {
    "name": "Euston Underground Station",
    "lat": 51.528186,
    "lon": -0.134239,
    "modes": [
      "overground",
      "tube"
    ],
    "lines": [
      "Avanti West Coast",
      "Victoria",
      "West Midlands Trains",
      "Lioness"
    ],
    "child_stations": [
      "Euston Underground Station"
    ]
  },
  {
    "name": "Finchley Central Underground Station",
    "lat": 51.600921,
    "lon": -0.192527,
    "modes": [
      "tube"
    ],
    "lines": [],
    "child_stations": [
      "Finchley Central Underground Station"
    ]
  },
  {
    "name": "Goodge Street Underground Station",
    "lat": 51.520599,
    "lon": -0.134361,
    "modes": [
      "tube"
    ],
    "lines": [],
    "child_stations": [
      "Goodge Street Underground Station"
    ]
  },
  {
    "name": "Golders Green Underground Station",
    "lat": 51.572259,
    "lon": -0.194039,
    "modes": [
      "tube"
    ],
    "lines": [],
    "child_stations": [
      "Golders Green Underground Station"
    ]
  },
  {
    "name": "High Barnet Underground Station",
    "lat": 51.650541,
    "lon": -0.194298,
    "modes": [
      "tube"
    ],
    "lines": [],
    "child_stations": [
      "High Barnet Underground Station"
    ]
  },
  {
    "name": "Hendon Central Underground Station",
    "lat": 51.583301,
    "lon": -0.226424,
    "modes": [
      "tube"
    ],
    "lines": [],
    "child_stations": [
      "Hendon Central Underground Station"
    ]
  },
  {
    "name": "Highgate Underground Station",
    "lat": 51.577532,
    "lon": -0.145857,
    "modes": [
      "tube"
    ],
    "lines": [],
    "child_stations": [
      "Highgate Underground Station"
    ]
  },
  {
    "name": "Hampstead Underground Station",
    "lat": 51.556239,
    "lon": -0.177464,
    "modes": [
      "tube"
    ],
    "lines": [],
    "child_stations": [
      "Hampstead Underground Station"
    ]
  },
  {
    "name": "Kennington Underground Station",
    "lat": 51.488337,
    "lon": -0.105963,
    "modes": [
      "tube"
    ],
    "lines": [],
    "child_stations": [
      "Kennington Underground Station"
    ]
  },
  {
    "name": "Kentish Town Underground Station",
    "lat": 51.550312,
    "lon": -0.140733,
    "modes": [
      "tube"
    ],
    "lines": [],
    "child_stations": [
      "Kentish Town Underground Station"
    ]
  },
  {
    "name": "Leicester Square Underground Station",
    "lat": 51.511386,
    "lon": -0.128426,
    "modes": [
      "tube"
    ],
    "lines": [
      "Piccadilly"
    ],
    "child_stations": [
      "Leicester Square Underground Station"
    ]
  },
  {
    "name": "Morden Underground Station",
    "lat": 51.402142,
    "lon": -0.194839,
    "modes": [
      "tube"
    ],
    "lines": [],
    "child_stations": [
      "Morden Underground Station"
    ]
  },
  {
    "name": "Mill Hill East Underground Station",
    "lat": 51.608229,
    "lon": -0.209986,
    "modes": [
      "tube"
    ],
    "lines": [],
    "child_stations": [
      "Mill Hill East Underground Station"
    ]
  },
  {
    "name": "Mornington Crescent Underground Station",
    "lat": 51.534679,
    "lon": -0.138789,
    "modes": [
      "tube"
    ],
    "lines": [],
    "child_stations": [
      "Mornington Crescent Underground Station"
    ]
  },
  {
    "name": "Old Street Underground Station",
    "lat": 51.525864,
    "lon": -0.08777,
    "modes": [
      "tube"
    ],
    "lines": [],
    "child_stations": [
      "Old Street Underground Station"
    ]
  },
  {
    "name": "Oval Underground Station",
    "lat": 51.48185,
    "lon": -0.112439,
    "modes": [
      "tube"
    ],
    "lines": [],
    "child_stations": [
      "Oval Underground Station"
    ]
  },
  {
    "name": "Stockwell Underground Station",
    "lat": 51.472184,
    "lon": -0.122644,
    "modes": [
      "tube"
    ],
    "lines": [
      "Victoria"
    ],
    "child_stations": [
      "Stockwell Underground Station"
    ]
  },
  {
    "name": "South Wimbledon Underground Station",
    "lat": 51.415309,
    "lon": -0.192005,
    "modes": [
      "tube"
    ],
    "lines": [],
    "child_stations": [
      "South Wimbledon Underground Station"
    ]
  },
  {
    "name": "Totteridge & Whetstone Underground Station",
    "lat": 51.630597,
    "lon": -0.17921,
    "modes": [
      "tube"
    ],
    "lines": [],
    "child_stations": [
      "Totteridge & Whetstone Underground Station"
    ]
  },
  {
    "name": "Tooting Bec Underground Station",
    "lat": 51.435678,
    "lon": -0.159736,
    "modes": [
      "tube"
    ],
    "lines": [],
    "child_stations": [
      "Tooting Bec Underground Station"
    ]
  },
  {
    "name": "Tooting Broadway Underground Station",
    "lat": 51.42763,
    "lon": -0.168374,
    "modes": [
      "tube"
    ],
    "lines": [],
    "child_stations": [
      "Tooting Broadway Underground Station"
    ]
  },
  {
    "name": "Tufnell Park Underground Station",
    "lat": 51.556822,
    "lon": -0.138433,
    "modes": [
      "tube"
    ],
    "lines": [],
    "child_stations": [
      "Tufnell Park Underground Station"
    ]
  },
  {
    "name": "West Finchley Underground Station",
    "lat": 51.609426,
    "lon": -0.188362,
    "modes": [
      "tube"
    ],
    "lines": [],
    "child_stations": [
      "West Finchley Underground Station"
    ]
  },
  {
    "name": "Woodside Park Underground Station",
    "lat": 51.618014,
    "lon": -0.18542,
    "modes": [
      "tube"
    ],
    "lines": [],
    "child_stations": [
      "Woodside Park Underground Station"
    ]
  },
  {
    "name": "Warren Street Underground Station",
    "lat": 51.524951,
    "lon": -0.138321,
    "modes": [
      "tube"
    ],
    "lines": [
      "Victoria"
    ],
    "child_stations": [
      "Warren Street Underground Station"
    ]
  },
  {
    "name": "Nine Elms Underground Station",
    "lat": 51.479912,
    "lon": -0.128476,
    "modes": [
      "tube"
    ],
    "lines": [],
    "child_stations": [
      "Nine Elms Underground Station"
    ]
  },
  {
    "name": "Alperton Underground Station",
    "lat": 51.540627,
    "lon": -0.29961,
    "modes": [
      "tube"
    ],
    "lines": [
      "Piccadilly"
    ],
    "child_stations": [
      "Alperton Underground Station"
    ]
  },
  {
    "name": "Arnos Grove Underground Station",
    "lat": 51.616446,
    "lon": -0.133062,
    "modes": [
      "tube"
    ],
    "lines": [
      "Piccadilly"
    ],
    "child_stations": [
      "Arnos Grove Underground Station"
    ]
  },
  {
    "name": "Arsenal Underground Station",
    "lat": 51.558655,
    "lon": -0.107457,
    "modes": [
      "tube"
    ],
    "lines": [
      "Piccadilly"
    ],
    "child_stations": [
      "Arsenal Underground Station"
    ]
  },
  {
    "name": "Bounds Green Underground Station",
    "lat": 51.607034,
    "lon": -0.124235,
    "modes": [
      "tube"
    ],
    "lines": [
      "Piccadilly"
    ],
    "child_stations": [
      "Bounds Green Underground Station"
    ]
  },
  {
    "name": "Boston Manor Underground Station",
    "lat": 51.495635,
    "lon": -0.324939,
    "modes": [
      "tube"
    ],
    "lines": [
      "Piccadilly"
    ],
    "child_stations": [
      "Boston Manor Underground Station"
    ]
  },
  {
    "name": "Caledonian Road Underground Station",
    "lat": 51.548519,
    "lon": -0.118493,
    "modes": [
      "tube"
    ],
    "lines": [
      "Piccadilly"
    ],
    "child_stations": [
      "Caledonian Road Underground Station"
    ]
  },
  {
    "name": "Covent Garden Underground Station",
    "lat": 51.513093,
    "lon": -0.124436,
    "modes": [
      "tube"
    ],
    "lines": [
      "Piccadilly"
    ],
    "child_stations": [
      "Covent Garden Underground Station"
    ]
  },
  {
    "name": "Cockfosters Underground Station",
    "lat": 51.65152,
    "lon": -0.149171,
    "modes": [
      "tube"
    ],
    "lines": [
      "Piccadilly"
    ],
    "child_stations": [
      "Cockfosters Underground Station"
    ]
  },
  {
    "name": "Finsbury Park Underground Station",
    "lat": 51.564158,
    "lon": -0.106825,
    "modes": [
      "tube"
    ],
    "lines": [
      "Victoria",
      "Piccadilly"
    ],
    "child_stations": [
      "Finsbury Park Underground Station"
    ]
  },
  {
    "name": "Hatton Cross Underground Station",
    "lat": 51.466747,
    "lon": -0.423191,
    "modes": [
      "tube"
    ],
    "lines": [
      "Piccadilly"
    ],
    "child_stations": [
      "Hatton Cross Underground Station"
    ]
  },
  {
    "name": "Hyde Park Corner Underground Station",
    "lat": 51.503035,
    "lon": -0.152441,
    "modes": [
      "tube"
    ],
    "lines": [
      "Piccadilly"
    ],
    "child_stations": [
      "Hyde Park Corner Underground Station"
    ]
  },
  {
    "name": "Heathrow Terminal 4 Underground Station",
    "lat": 51.458524,
    "lon": -0.445771,
    "modes": [
      "tube",
      "elizabeth-line"
    ],
    "lines": [
      "Piccadilly",
      "Elizabeth line"
    ],
    "child_stations": [
      "Heathrow Terminal 4 Underground Station"
    ]
  },
  {
    "name": "Heathrow Terminal 5 Underground Station",
    "lat": 51.470052,
    "lon": -0.49056,
    "modes": [
      "tube",
      "elizabeth-line"
    ],
    "lines": [
      "Piccadilly",
      "Elizabeth line",
      "Heathrow Express"
    ],
    "child_stations": [
      "Heathrow Terminal 5 Underground Station",
      "Heathrow Terminal 5 Rail Station"
    ]
  },
  {
    "name": "Heathrow Terminals 2 & 3 Underground Station",
    "lat": 51.471235,
    "lon": -0.452265,
    "modes": [
      "tube",
      "elizabeth-line"
    ],
    "lines": [
      "Piccadilly",
      "Elizabeth line",
      "Heathrow Express"
    ],
    "child_stations": [
      "Heathrow Terminals 2 & 3 Underground Station"
    ]
  },
  {
    "name": "Hounslow Central Underground Station",
    "lat": 51.471295,
    "lon": -0.366578,
    "modes": [
      "tube"
    ],
    "lines": [
      "Piccadilly"
    ],
    "child_stations": [
      "Hounslow Central Underground Station"
    ]
  },
  {
    "name": "Hounslow East Underground Station",
    "lat": 51.473213,
    "lon": -0.356474,
    "modes": [
      "tube"
    ],
    "lines": [
      "Piccadilly"
    ],
    "child_stations": [
      "Hounslow East Underground Station"
    ]
  },
  {
    "name": "Hounslow West Underground Station",
    "lat": 51.473469,
    "lon": -0.386544,
    "modes": [
      "tube"
    ],
    "lines": [
      "Piccadilly"
    ],
    "child_stations": [
      "Hounslow West Underground Station"
    ]
  },
  {
    "name": "Holloway Road Underground Station",
    "lat": 51.552697,
    "lon": -0.113244,
    "modes": [
      "tube"
    ],
    "lines": [
      "Piccadilly"
    ],
    "child_stations": [
      "Holloway Road Underground Station"
    ]
  },
  {
    "name": "Knightsbridge Underground Station",
    "lat": 51.501669,
    "lon": -0.160508,
    "modes": [
      "tube"
    ],
    "lines": [
      "Piccadilly",
      "C1"
    ],
    "child_stations": [
      "Knightsbridge Underground Station"
    ]
  },
  {
    "name": "Manor House Underground Station",
    "lat": 51.570738,
    "lon": -0.096118,
    "modes": [
      "tube"
    ],
    "lines": [
      "Piccadilly"
    ],
    "child_stations": [
      "Manor House Underground Station"
    ]
  },
  {
    "name": "North Ealing Underground Station",
    "lat": 51.517505,
    "lon": -0.288868,
    "modes": [
      "tube"
    ],
    "lines": [
      "Piccadilly"
    ],
    "child_stations": [
      "North Ealing Underground Station"
    ]
  },
  {
    "name": "Northfields Underground Station",
    "lat": 51.499319,
    "lon": -0.314719,
    "modes": [
      "tube"
    ],
    "lines": [
      "Piccadilly"
    ],
    "child_stations": [
      "Northfields Underground Station"
    ]
  },
  {
    "name": "Oakwood Underground Station",
    "lat": 51.647726,
    "lon": -0.132182,
    "modes": [
      "tube"
    ],
    "lines": [
      "Piccadilly"
    ],
    "child_stations": [
      "Oakwood Underground Station"
    ]
  },
  {
    "name": "Osterley Underground Station",
    "lat": 51.481274,
    "lon": -0.352224,
    "modes": [
      "tube"
    ],
    "lines": [
      "Piccadilly"
    ],
    "child_stations": [
      "Osterley Underground Station"
    ]
  },
  {
    "name": "Park Royal Underground Station",
    "lat": 51.527123,
    "lon": -0.284341,
    "modes": [
      "tube"
    ],
    "lines": [
      "Piccadilly"
    ],
    "child_stations": [
      "Park Royal Underground Station"
    ]
  },
  {
    "name": "Russell Square Underground Station",
    "lat": 51.523073,
    "lon": -0.124285,
    "modes": [
      "tube"
    ],
    "lines": [
      "Piccadilly"
    ],
    "child_stations": [
      "Russell Square Underground Station"
    ]
  },
  {
    "name": "South Ealing Underground Station",
    "lat": 51.501003,
    "lon": -0.307424,
    "modes": [
      "tube"
    ],
    "lines": [
      "Piccadilly"
    ],
    "child_stations": [
      "South Ealing Underground Station"
    ]
  },
  {
    "name": "Southgate Underground Station",
    "lat": 51.632315,
    "lon": -0.127816,
    "modes": [
      "tube"
    ],
    "lines": [
      "Piccadilly"
    ],
    "child_stations": [
      "Southgate Underground Station"
    ]
  },
  {
    "name": "South Harrow Underground Station",
    "lat": 51.564888,
    "lon": -0.352492,
    "modes": [
      "tube"
    ],
    "lines": [
      "Piccadilly"
    ],
    "child_stations": [
      "South Harrow Underground Station"
    ]
  },
  {
    "name": "Sudbury Hill Underground Station",
    "lat": 51.556946,
    "lon": -0.336435,
    "modes": [
      "tube"
    ],
    "lines": [
      "Piccadilly"
    ],
    "child_stations": [
      "Sudbury Hill Underground Station"
    ]
  },
  {
    "name": "Sudbury Town Underground Station",
    "lat": 51.550815,
    "lon": -0.315745,
    "modes": [
      "tube"
    ],
    "lines": [
      "Piccadilly"
    ],
    "child_stations": [
      "Sudbury Town Underground Station"
    ]
  },
  {
    "name": "Turnpike Lane Underground Station",
    "lat": 51.590272,
    "lon": -0.102953,
    "modes": [
      "tube"
    ],
    "lines": [
      "Piccadilly"
    ],
    "child_stations": [
      "Turnpike Lane Underground Station"
    ]
  },
  {
    "name": "Wood Green Underground Station",
    "lat": 51.597479,
    "lon": -0.109886,
    "modes": [
      "tube"
    ],
    "lines": [
      "Piccadilly"
    ],
    "child_stations": [
      "Wood Green Underground Station"
    ]
  },
  {
    "name": "Blackhorse Road Underground Station",
    "lat": 51.586919,
    "lon": -0.04115,
    "modes": [
      "overground",
      "tube"
    ],
    "lines": [
      "Victoria",
      "Suffragette"
    ],
    "child_stations": [
      "Blackhorse Road Underground Station"
    ]
  },
  {
    "name": "Brixton Underground Station",
    "lat": 51.462618,
    "lon": -0.114888,
    "modes": [
      "tube"
    ],
    "lines": [
      "Victoria"
    ],
    "child_stations": [
      "Brixton Underground Station"
    ]
  },
  {
    "name": "Highbury & Islington Underground Station",
    "lat": 51.54635,
    "lon": -0.103324,
    "modes": [
      "overground",
      "tube"
    ],
    "lines": [
      "Victoria",
      "Great Northern",
      "Windrush",
      "Mildmay"
    ],
    "child_stations": [
      "Highbury & Islington Underground Station"
    ]
  },
  {
    "name": "Pimlico Underground Station",
    "lat": 51.489097,
    "lon": -0.133761,
    "modes": [
      "tube"
    ],
    "lines": [
      "Victoria"
    ],
    "child_stations": [
      "Pimlico Underground Station"
    ]
  },
  {
    "name": "Seven Sisters Underground Station",
    "lat": 51.58333,
    "lon": -0.072584,
    "modes": [
      "overground",
      "tube"
    ],
    "lines": [
      "Victoria",
      "Greater Anglia",
      "Weaver"
    ],
    "child_stations": [
      "Seven Sisters Underground Station"
    ]
  },
  {
    "name": "Tottenham Hale Underground Station",
    "lat": 51.588108,
    "lon": -0.060241,
    "modes": [
      "tube"
    ],
    "lines": [
      "Victoria"
    ],
    "child_stations": [
      "Tottenham Hale Underground Station"
    ]
  },
  {
    "name": "Vauxhall Underground Station",
    "lat": 51.485743,
    "lon": -0.124204,
    "modes": [
      "tube"
    ],
    "lines": [
      "Victoria"
    ],
    "child_stations": [
      "Vauxhall Underground Station"
    ]
  },
  {
    "name": "Walthamstow Central Underground Station",
    "lat": 51.582965,
    "lon": -0.019885,
    "modes": [
      "overground",
      "tube"
    ],
    "lines": [
      "Victoria",
      "Weaver"
    ],
    "child_stations": [
      "Walthamstow Central Underground Station"
    ]
  },
  {
    "name": "Abbey Road DLR Station",
    "lat": 51.531926,
    "lon": 0.003737,
    "modes": [
      "dlr"
    ],
    "lines": [
      "DLR"
    ],
    "child_stations": [
      "Abbey Road DLR Station"
    ]
  },
  {
    "name": "All Saints DLR Station",
    "lat": 51.511,
    "lon": -0.013135,
    "modes": [
      "dlr"
    ],
    "lines": [
      "DLR"
    ],
    "child_stations": [
      "All Saints DLR Station"
    ]
  },
  {
    "name": "Beckton DLR Station",
    "lat": 51.514362,
    "lon": 0.061453,
    "modes": [
      "dlr"
    ],
    "lines": [
      "DLR"
    ],
    "child_stations": [
      "Beckton DLR Station"
    ]
  },
  {
    "name": "Blackwall DLR Station",
    "lat": 51.507991,
    "lon": -0.006969,
    "modes": [
      "dlr"
    ],
    "lines": [
      "DLR"
    ],
    "child_stations": [
      "Blackwall DLR Station"
    ]
  },
  {
    "name": "Bow Church DLR Station",
    "lat": 51.527858,
    "lon": -0.020936,
    "modes": [
      "dlr"
    ],
    "lines": [
      "DLR"
    ],
    "child_stations": [
      "Bow Church DLR Station"
    ]
  },
  {
    "name": "Beckton Park DLR Station",
    "lat": 51.508793,
    "lon": 0.054932,
    "modes": [
      "dlr"
    ],
    "lines": [
      "DLR"
    ],
    "child_stations": [
      "Beckton Park DLR Station"
    ]
  },
  {
    "name": "Crossharbour DLR Station",
    "lat": 51.495728,
    "lon": -0.014606,
    "modes": [
      "dlr"
    ],
    "lines": [
      "DLR"
    ],
    "child_stations": [
      "Crossharbour DLR Station"
    ]
  },
  {
    "name": "Custom House (for ExCel) DLR Station",
    "lat": 51.509716,
    "lon": 0.026699,
    "modes": [
      "dlr",
      "elizabeth-line"
    ],
    "lines": [
      "Elizabeth line",
      "DLR"
    ],
    "child_stations": [
      "Custom House (for ExCel) DLR Station"
    ]
  },
  {
    "name": "Cutty Sark (for Maritime Greenwich) DLR Station",
    "lat": 51.481671,
    "lon": -0.01081,
    "modes": [
      "dlr"
    ],
    "lines": [
      "DLR"
    ],
    "child_stations": [
      "Cutty Sark (for Maritime Greenwich) DLR Station"
    ]
  },
  {
    "name": "Cyprus DLR Station",
    "lat": 51.508473,
    "lon": 0.063925,
    "modes": [
      "dlr"
    ],
    "lines": [
      "DLR"
    ],
    "child_stations": [
      "Cyprus DLR Station"
    ]
  },
  {
    "name": "Deptford Bridge DLR Station",
    "lat": 51.474215,
    "lon": -0.022438,
    "modes": [
      "dlr"
    ],
    "lines": [
      "DLR"
    ],
    "child_stations": [
      "Deptford Bridge DLR Station"
    ]
  },
  {
    "name": "Devons Road DLR Station",
    "lat": 51.522667,
    "lon": -0.017615,
    "modes": [
      "dlr"
    ],
    "lines": [
      "DLR"
    ],
    "child_stations": [
      "Devons Road DLR Station"
    ]
  },
  {
    "name": "East India DLR Station",
    "lat": 51.509359,
    "lon": -0.002326,
    "modes": [
      "dlr"
    ],
    "lines": [
      "D3",
      "SL4",
      "DLR"
    ],
    "child_stations": [
      "East India DLR Station"
    ]
  },
  {
    "name": "Elverson Road DLR Station",
    "lat": 51.469074,
    "lon": -0.016728,
    "modes": [
      "dlr"
    ],
    "lines": [
      "DLR"
    ],
    "child_stations": [
      "Elverson Road DLR Station"
    ]
  },
  {
    "name": "Gallions Reach DLR Station",
    "lat": 51.508941,
    "lon": 0.071555,
    "modes": [
      "dlr"
    ],
    "lines": [
      "DLR"
    ],
    "child_stations": [
      "Gallions Reach DLR Station"
    ]
  },
  {
    "name": "Greenwich DLR Station",
    "lat": 51.478087,
    "lon": -0.013673,
    "modes": [
      "dlr"
    ],
    "lines": [
      "DLR"
    ],
    "child_stations": [
      "Greenwich DLR Station"
    ]
  },
  {
    "name": "Heron Quays DLR Station",
    "lat": 51.503379,
    "lon": -0.021421,
    "modes": [
      "dlr"
    ],
    "lines": [
      "DLR"
    ],
    "child_stations": [
      "Heron Quays DLR Station"
    ]
  },
  {
    "name": "Island Gardens DLR Station",
    "lat": 51.487811,
    "lon": -0.010139,
    "modes": [
      "dlr"
    ],
    "lines": [
      "DLR"
    ],
    "child_stations": [
      "Island Gardens DLR Station"
    ]
  },
  {
    "name": "King George V DLR Station",
    "lat": 51.502003,
    "lon": 0.062624,
    "modes": [
      "dlr"
    ],
    "lines": [
      "DLR"
    ],
    "child_stations": [
      "King George V DLR Station"
    ]
  },
  {
    "name": "London City Airport DLR Station",
    "lat": 51.503416,
    "lon": 0.048739,
    "modes": [
      "dlr"
    ],
    "lines": [
      "DLR"
    ],
    "child_stations": [
      "London City Airport DLR Station"
    ]
  },
  {
    "name": "Langdon Park DLR Station",
    "lat": 51.515172,
    "lon": -0.01415,
    "modes": [
      "dlr"
    ],
    "lines": [
      "DLR"
    ],
    "child_stations": [
      "Langdon Park DLR Station"
    ]
  },
  {
    "name": "Lewisham DLR Station",
    "lat": 51.464665,
    "lon": -0.012874,
    "modes": [
      "dlr"
    ],
    "lines": [
      "DLR"
    ],
    "child_stations": [
      "Lewisham DLR Station"
    ]
  },
  {
    "name": "Limehouse DLR Station",
    "lat": 51.512393,
    "lon": -0.039809,
    "modes": [
      "dlr"
    ],
    "lines": [
      "DLR"
    ],
    "child_stations": [
      "Limehouse DLR Station"
    ]
  },
  {
    "name": "Mudchute DLR Station",
    "lat": 51.490704,
    "lon": -0.014738,
    "modes": [
      "dlr"
    ],
    "lines": [
      "DLR"
    ],
    "child_stations": [
      "Mudchute DLR Station"
    ]
  },
  {
    "name": "Pontoon Dock DLR Station",
    "lat": 51.502212,
    "lon": 0.032115,
    "modes": [
      "dlr"
    ],
    "lines": [
      "DLR"
    ],
    "child_stations": [
      "Pontoon Dock DLR Station"
    ]
  },
  {
    "name": "Poplar DLR Station",
    "lat": 51.507744,
    "lon": -0.017384,
    "modes": [
      "dlr"
    ],
    "lines": [
      "DLR"
    ],
    "child_stations": [
      "Poplar DLR Station"
    ]
  },
  {
    "name": "Prince Regent DLR Station",
    "lat": 51.509263,
    "lon": 0.034158,
    "modes": [
      "dlr"
    ],
    "lines": [
      "DLR"
    ],
    "child_stations": [
      "Prince Regent DLR Station"
    ]
  },
  {
    "name": "Pudding Mill Lane DLR Station",
    "lat": 51.534302,
    "lon": -0.012755,
    "modes": [
      "dlr"
    ],
    "lines": [
      "DLR"
    ],
    "child_stations": [
      "Pudding Mill Lane DLR Station"
    ]
  },
  {
    "name": "Royal Albert DLR Station",
    "lat": 51.508357,
    "lon": 0.045935,
    "modes": [
      "dlr"
    ],
    "lines": [
      "DLR"
    ],
    "child_stations": [
      "Royal Albert DLR Station"
    ]
  },
  {
    "name": "Royal Victoria DLR Station",
    "lat": 51.509336,
    "lon": 0.018497,
    "modes": [
      "dlr"
    ],
    "lines": [
      "DLR"
    ],
    "child_stations": [
      "Royal Victoria DLR Station"
    ]
  },
  {
    "name": "Shadwell DLR Station",
    "lat": 51.511693,
    "lon": -0.056643,
    "modes": [
      "overground",
      "dlr"
    ],
    "lines": [
      "Windrush",
      "DLR"
    ],
    "child_stations": [
      "Shadwell DLR Station"
    ]
  },
  {
    "name": "Stratford High Street DLR Station",
    "lat": 51.538196,
    "lon": -0.001078,
    "modes": [
      "dlr"
    ],
    "lines": [
      "DLR"
    ],
    "child_stations": [
      "Stratford High Street DLR Station"
    ]
  },
  {
    "name": "Stratford International DLR Station",
    "lat": 51.545265,
    "lon": -0.009638,
    "modes": [
      "dlr"
    ],
    "lines": [
      "DLR"
    ],
    "child_stations": [
      "Stratford International DLR Station"
    ]
  },
  {
    "name": "South Quay DLR Station",
    "lat": 51.50005,
    "lon": -0.01597,
    "modes": [
      "dlr"
    ],
    "lines": [
      "DLR"
    ],
    "child_stations": [
      "South Quay DLR Station"
    ]
  },
  {
    "name": "Star Lane DLR Station",
    "lat": 51.520786,
    "lon": 0.004156,
    "modes": [
      "dlr"
    ],
    "lines": [
      "DLR"
    ],
    "child_stations": [
      "Star Lane DLR Station"
    ]
  },
  {
    "name": "Tower Gateway DLR Station",
    "lat": 51.510617,
    "lon": -0.074818,
    "modes": [
      "dlr"
    ],
    "lines": [
      "DLR"
    ],
    "child_stations": [
      "Tower Gateway DLR Station"
    ]
  },
  {
    "name": "Westferry DLR Station",
    "lat": 51.509431,
    "lon": -0.02675,
    "modes": [
      "dlr"
    ],
    "lines": [
      "DLR"
    ],
    "child_stations": [
      "Westferry DLR Station"
    ]
  },
  {
    "name": "West India Quay DLR Station",
    "lat": 51.50703,
    "lon": -0.020311,
    "modes": [
      "dlr"
    ],
    "lines": [
      "DLR"
    ],
    "child_stations": [
      "West India Quay DLR Station"
    ]
  },
  {
    "name": "Woolwich Arsenal DLR Station",
    "lat": 51.490009,
    "lon": 0.069127,
    "modes": [
      "dlr"
    ],
    "lines": [
      "DLR"
    ],
    "child_stations": [
      "Woolwich Arsenal DLR Station"
    ]
  },
  {
    "name": "West Silvertown DLR Station",
    "lat": 51.502838,
    "lon": 0.02246,
    "modes": [
      "dlr"
    ],
    "lines": [
      "DLR"
    ],
    "child_stations": [
      "West Silvertown DLR Station"
    ]
  },
  {
    "name": "Acton Central Rail Station",
    "lat": 51.508716,
    "lon": -0.262971,
    "modes": [
      "overground"
    ],
    "lines": [
      "Mildmay"
    ],
    "child_stations": [
      "Acton Central Rail Station"
    ]
  },
  {
    "name": "Brondesbury Rail Station",
    "lat": 51.545166,
    "lon": -0.202309,
    "modes": [
      "overground"
    ],
    "lines": [
      "Mildmay"
    ],
    "child_stations": [
      "Brondesbury Rail Station"
    ]
  },
  {
    "name": "Brondesbury Park Rail Station",
    "lat": 51.540734,
    "lon": -0.210054,
    "modes": [
      "overground"
    ],
    "lines": [
      "Mildmay"
    ],
    "child_stations": [
      "Brondesbury Park Rail Station"
    ]
  },
  {
    "name": "Caledonian Road & Barnsbury Rail Station",
    "lat": 51.543041,
    "lon": -0.116729,
    "modes": [
      "overground"
    ],
    "lines": [
      "Mildmay"
    ],
    "child_stations": [
      "Caledonian Road & Barnsbury Rail Station"
    ]
  },
  {
    "name": "Clapham Junction Rail Station",
    "lat": 51.464187,
    "lon": -0.170221,
    "modes": [
      "overground"
    ],
    "lines": [
      "Windrush",
      "South Western Railway",
      "Southern",
      "Mildmay"
    ],
    "child_stations": [
      "Clapham Junction Rail Station"
    ]
  },
  {
    "name": "Camden Road Rail Station",
    "lat": 51.541791,
    "lon": -0.138701,
    "modes": [
      "overground"
    ],
    "lines": [
      "Mildmay"
    ],
    "child_stations": [
      "Camden Road Rail Station"
    ]
  },
  {
    "name": "Canonbury Rail Station",
    "lat": 51.548732,
    "lon": -0.092191,
    "modes": [
      "overground"
    ],
    "lines": [
      "Windrush",
      "Mildmay"
    ],
    "child_stations": [
      "Canonbury Rail Station"
    ]
  },
  {
    "name": "Imperial Wharf Rail Station",
    "lat": 51.474949,
    "lon": -0.182823,
    "modes": [
      "overground"
    ],
    "lines": [
      "Mildmay"
    ],
    "child_stations": [
      "Imperial Wharf Rail Station"
    ]
  },
  {
    "name": "Dalston Kingsland Rail Station",
    "lat": 51.548148,
    "lon": -0.075701,
    "modes": [
      "overground"
    ],
    "lines": [
      "Mildmay"
    ],
    "child_stations": [
      "Dalston Kingsland Rail Station"
    ]
  },
  {
    "name": "Finchley Road & Frognal Rail Station",
    "lat": 51.550266,
    "lon": -0.183141,
    "modes": [
      "overground"
    ],
    "lines": [
      "Mildmay"
    ],
    "child_stations": [
      "Finchley Road & Frognal Rail Station"
    ]
  },
  {
    "name": "Gospel Oak Rail Station",
    "lat": 51.555335,
    "lon": -0.15077,
    "modes": [
      "overground"
    ],
    "lines": [
      "Mildmay",
      "Suffragette"
    ],
    "child_stations": [
      "Gospel Oak Rail Station"
    ]
  },
  {
    "name": "Hackney Central Rail Station",
    "lat": 51.547105,
    "lon": -0.056058,
    "modes": [
      "overground"
    ],
    "lines": [
      "Mildmay"
    ],
    "child_stations": [
      "Hackney Central Rail Station"
    ]
  },
  {
    "name": "Hackney Wick Rail Station",
    "lat": 51.54341,
    "lon": -0.02492,
    "modes": [
      "overground"
    ],
    "lines": [
      "Mildmay"
    ],
    "child_stations": [
      "Hackney Wick Rail Station"
    ]
  },
  {
    "name": "Hampstead Heath Rail Station",
    "lat": 51.55521,
    "lon": -0.165705,
    "modes": [
      "overground"
    ],
    "lines": [
      "Mildmay"
    ],
    "child_stations": [
      "Hampstead Heath Rail Station"
    ]
  },
  {
    "name": "Homerton Rail Station",
    "lat": 51.547012,
    "lon": -0.04236,
    "modes": [
      "overground"
    ],
    "lines": [
      "Mildmay"
    ],
    "child_stations": [
      "Homerton Rail Station"
    ]
  },
  {
    "name": "Kensal Rise Rail Station",
    "lat": 51.534554,
    "lon": -0.219957,
    "modes": [
      "overground"
    ],
    "lines": [
      "Mildmay"
    ],
    "child_stations": [
      "Kensal Rise Rail Station"
    ]
  },
  {
    "name": "Kentish Town West Rail Station",
    "lat": 51.546548,
    "lon": -0.146655,
    "modes": [
      "overground"
    ],
    "lines": [
      "Mildmay"
    ],
    "child_stations": [
      "Kentish Town West Rail Station"
    ]
  },
  {
    "name": "South Acton Rail Station",
    "lat": 51.499695,
    "lon": -0.270157,
    "modes": [
      "overground"
    ],
    "lines": [
      "Mildmay"
    ],
    "child_stations": [
      "South Acton Rail Station"
    ]
  },
  {
    "name": "Anerley Rail Station",
    "lat": 51.412153,
    "lon": -0.065886,
    "modes": [
      "overground"
    ],
    "lines": [
      "Windrush",
      "Southern"
    ],
    "child_stations": [
      "Anerley Rail Station"
    ]
  },
  {
    "name": "Brockley Rail Station",
    "lat": 51.464649,
    "lon": -0.037537,
    "modes": [
      "overground"
    ],
    "lines": [
      "Windrush",
      "Southern"
    ],
    "child_stations": [
      "Brockley Rail Station"
    ]
  },
  {
    "name": "Clapham High Street Rail Station",
    "lat": 51.465481,
    "lon": -0.132522,
    "modes": [
      "overground"
    ],
    "lines": [
      "Windrush"
    ],
    "child_stations": [
      "Clapham High Street Rail Station"
    ]
  },
  {
    "name": "Crystal Palace Rail Station",
    "lat": 51.418109,
    "lon": -0.07261,
    "modes": [
      "overground"
    ],
    "lines": [
      "Windrush",
      "Southern"
    ],
    "child_stations": [
      "Crystal Palace Rail Station"
    ]
  },
  {
    "name": "Dalston Junction Rail Station",
    "lat": 51.546116,
    "lon": -0.075137,
    "modes": [
      "overground"
    ],
    "lines": [
      "Windrush"
    ],
    "child_stations": [
      "Dalston Junction Rail Station"
    ]
  },
  {
    "name": "Denmark Hill Rail Station",
    "lat": 51.468203,
    "lon": -0.089361,
    "modes": [
      "overground"
    ],
    "lines": [
      "Windrush",
      "Thameslink",
      "Southeastern"
    ],
    "child_stations": [
      "Denmark Hill Rail Station"
    ]
  },
  {
    "name": "Forest Hill Rail Station",
    "lat": 51.43928,
    "lon": -0.053157,
    "modes": [
      "overground"
    ],
    "lines": [
      "Windrush",
      "Southern"
    ],
    "child_stations": [
      "Forest Hill Rail Station"
    ]
  },
  {
    "name": "Haggerston Rail Station",
    "lat": 51.538705,
    "lon": -0.075666,
    "modes": [
      "overground"
    ],
    "lines": [
      "Windrush"
    ],
    "child_stations": [
      "Haggerston Rail Station"
    ]
  },
  {
    "name": "Honor Oak Park Rail Station",
    "lat": 51.449989,
    "lon": -0.045505,
    "modes": [
      "overground"
    ],
    "lines": [
      "Windrush",
      "Southern"
    ],
    "child_stations": [
      "Honor Oak Park Rail Station"
    ]
  },
  {
    "name": "Hoxton Rail Station",
    "lat": 51.531512,
    "lon": -0.075681,
    "modes": [
      "overground"
    ],
    "lines": [
      "Windrush"
    ],
    "child_stations": [
      "Hoxton Rail Station"
    ]
  },
  {
    "name": "New Cross Gate Rail Station",
    "lat": 51.475128,
    "lon": -0.040399,
    "modes": [
      "overground"
    ],
    "lines": [
      "Windrush",
      "Southern"
    ],
    "child_stations": [
      "New Cross Gate Rail Station"
    ]
  },
  {
    "name": "Norwood Junction Rail Station",
    "lat": 51.397019,
    "lon": -0.075221,
    "modes": [
      "overground"
    ],
    "lines": [
      "Windrush",
      "Thameslink",
      "Southern",
      "Southeastern"
    ],
    "child_stations": [
      "Norwood Junction Rail Station"
    ]
  },
  {
    "name": "New Cross ELL Rail Station",
    "lat": 51.476344,
    "lon": -0.032441,
    "modes": [
      "overground"
    ],
    "lines": [
      "Windrush",
      "Southeastern"
    ],
    "child_stations": [
      "New Cross ELL Rail Station"
    ]
  },
  {
    "name": "Queens Road Peckham Rail Station",
    "lat": 51.473566,
    "lon": -0.057313,
    "modes": [
      "overground"
    ],
    "lines": [
      "Windrush",
      "Southern"
    ],
    "child_stations": [
      "Queens Road Peckham Rail Station"
    ]
  },
  {
    "name": "Peckham Rye Rail Station",
    "lat": 51.470034,
    "lon": -0.069414,
    "modes": [
      "overground"
    ],
    "lines": [
      "Windrush",
      "Thameslink",
      "Southern",
      "Southeastern"
    ],
    "child_stations": [
      "Peckham Rye Rail Station"
    ]
  },
  {
    "name": "Penge West Rail Station",
    "lat": 51.417555,
    "lon": -0.06084,
    "modes": [
      "overground"
    ],
    "lines": [
      "Windrush",
      "Southern"
    ],
    "child_stations": [
      "Penge West Rail Station"
    ]
  },
  {
    "name": "Rotherhithe Rail Station",
    "lat": 51.500817,
    "lon": -0.052048,
    "modes": [
      "overground"
    ],
    "lines": [
      "Windrush"
    ],
    "child_stations": [
      "Rotherhithe Rail Station"
    ]
  },
  {
    "name": "Shoreditch High Street Rail Station",
    "lat": 51.523375,
    "lon": -0.075246,
    "modes": [
      "overground"
    ],
    "lines": [
      "Windrush"
    ],
    "child_stations": [
      "Shoreditch High Street Rail Station"
    ]
  },
  {
    "name": "Surrey Quays Rail Station",
    "lat": 51.493196,
    "lon": -0.047519,
    "modes": [
      "overground"
    ],
    "lines": [
      "Windrush"
    ],
    "child_stations": [
      "Surrey Quays Rail Station"
    ]
  },
  {
    "name": "Sydenham Rail Station",
    "lat": 51.427248,
    "lon": -0.054244,
    "modes": [
      "overground"
    ],
    "lines": [
      "Windrush",
      "Southern"
    ],
    "child_stations": [
      "Sydenham Rail Station"
    ]
  },
  {
    "name": "Wapping Rail Station",
    "lat": 51.504388,
    "lon": -0.055931,
    "modes": [
      "overground"
    ],
    "lines": [
      "Windrush",
      "D3"
    ],
    "child_stations": [
      "Wapping Rail Station"
    ]
  },
  {
    "name": "West Croydon Rail Station",
    "lat": 51.378428,
    "lon": -0.102585,
    "modes": [
      "overground"
    ],
    "lines": [
      "Windrush",
      "Southern"
    ],
    "child_stations": [
      "West Croydon Rail Station"
    ]
  },
  {
    "name": "Wandsworth Road Rail Station",
    "lat": 51.470216,
    "lon": -0.13852,
    "modes": [
      "overground"
    ],
    "lines": [
      "Windrush"
    ],
    "child_stations": [
      "Wandsworth Road Rail Station"
    ]
  },
  {
    "name": "Bushey Rail Station",
    "lat": 51.645402,
    "lon": -0.384799,
    "modes": [
      "overground"
    ],
    "lines": [
      "Lioness"
    ],
    "child_stations": [
      "Bushey Rail Station"
    ]
  },
  {
    "name": "Carpenders Park Rail Station",
    "lat": 51.628351,
    "lon": -0.385939,
    "modes": [
      "overground"
    ],
    "lines": [
      "Lioness"
    ],
    "child_stations": [
      "Carpenders Park Rail Station"
    ]
  },
  {
    "name": "Headstone Lane Rail Station",
    "lat": 51.602649,
    "lon": -0.35722,
    "modes": [
      "overground"
    ],
    "lines": [
      "Lioness"
    ],
    "child_stations": [
      "Headstone Lane Rail Station"
    ]
  },
  {
    "name": "Hatch End Rail Station",
    "lat": 51.609417,
    "lon": -0.368601,
    "modes": [
      "overground"
    ],
    "lines": [
      "Lioness"
    ],
    "child_stations": [
      "Hatch End Rail Station"
    ]
  },
  {
    "name": "Kilburn High Road Rail Station",
    "lat": 51.537277,
    "lon": -0.192237,
    "modes": [
      "overground"
    ],
    "lines": [
      "Lioness"
    ],
    "child_stations": [
      "Kilburn High Road Rail Station"
    ]
  },
  {
    "name": "South Hampstead Rail Station",
    "lat": 51.541432,
    "lon": -0.178878,
    "modes": [
      "overground"
    ],
    "lines": [
      "Lioness"
    ],
    "child_stations": [
      "South Hampstead Rail Station"
    ]
  },
  {
    "name": "Watford High Street Rail Station",
    "lat": 51.652655,
    "lon": -0.391711,
    "modes": [
      "overground"
    ],
    "lines": [
      "Lioness"
    ],
    "child_stations": [
      "Watford High Street Rail Station"
    ]
  },
  {
    "name": "Watford Junction Rail Station",
    "lat": 51.663529,
    "lon": -0.396517,
    "modes": [
      "overground"
    ],
    "lines": [
      "Lioness"
    ],
    "child_stations": [
      "Watford Junction Rail Station"
    ]
  },
  {
    "name": "Bush Hill Park Rail Station",
    "lat": 51.641519,
    "lon": -0.069221,
    "modes": [
      "overground"
    ],
    "lines": [
      "Weaver"
    ],
    "child_stations": [
      "Bush Hill Park Rail Station"
    ]
  },
  {
    "name": "Bruce Grove Rail Station",
    "lat": 51.593959,
    "lon": -0.069867,
    "modes": [
      "overground"
    ],
    "lines": [
      "Greater Anglia",
      "Weaver"
    ],
    "child_stations": [
      "Bruce Grove Rail Station"
    ]
  },
  {
    "name": "Bethnal Green Rail Station",
    "lat": 51.523917,
    "lon": -0.059568,
    "modes": [
      "overground"
    ],
    "lines": [
      "Greater Anglia",
      "Weaver"
    ],
    "child_stations": [
      "Bethnal Green Rail Station"
    ]
  },
  {
    "name": "Cambridge Heath (London) Rail Station",
    "lat": 51.531973,
    "lon": -0.057279,
    "modes": [
      "overground"
    ],
    "lines": [
      "Greater Anglia",
      "Weaver"
    ],
    "child_stations": [
      "Cambridge Heath (London) Rail Station"
    ]
  },
  {
    "name": "Cheshunt Rail Station",
    "lat": 51.702876,
    "lon": -0.02396,
    "modes": [
      "overground"
    ],
    "lines": [
      "Greater Anglia",
      "Weaver"
    ],
    "child_stations": [
      "Cheshunt Rail Station"
    ]
  },
  {
    "name": "Chingford Rail Station",
    "lat": 51.633087,
    "lon": 0.009897,
    "modes": [
      "overground"
    ],
    "lines": [
      "Weaver"
    ],
    "child_stations": [
      "Chingford Rail Station"
    ]
  },
  {
    "name": "Clapton Rail Station",
    "lat": 51.561644,
    "lon": -0.057025,
    "modes": [
      "overground"
    ],
    "lines": [
      "Greater Anglia",
      "Weaver"
    ],
    "child_stations": [
      "Clapton Rail Station"
    ]
  },
  {
    "name": "Edmonton Green Rail Station",
    "lat": 51.624929,
    "lon": -0.061112,
    "modes": [
      "overground"
    ],
    "lines": [
      "Greater Anglia",
      "Weaver"
    ],
    "child_stations": [
      "Edmonton Green Rail Station"
    ]
  },
  {
    "name": "Enfield Town Rail Station",
    "lat": 51.652026,
    "lon": -0.079328,
    "modes": [
      "overground"
    ],
    "lines": [
      "Weaver"
    ],
    "child_stations": [
      "Enfield Town Rail Station"
    ]
  },
  {
    "name": "Hackney Downs Rail Station",
    "lat": 51.548757,
    "lon": -0.060819,
    "modes": [
      "overground"
    ],
    "lines": [
      "Greater Anglia",
      "Weaver"
    ],
    "child_stations": [
      "Hackney Downs Rail Station"
    ]
  },
  {
    "name": "Highams Park Rail Station",
    "lat": 51.60835,
    "lon": -0.000222,
    "modes": [
      "overground"
    ],
    "lines": [
      "Weaver"
    ],
    "child_stations": [
      "Highams Park Rail Station"
    ]
  },
  {
    "name": "London Fields Rail Station",
    "lat": 51.541153,
    "lon": -0.057753,
    "modes": [
      "overground"
    ],
    "lines": [
      "Greater Anglia",
      "Weaver"
    ],
    "child_stations": [
      "London Fields Rail Station"
    ]
  },
  {
    "name": "Rectory Road Rail Station",
    "lat": 51.558502,
    "lon": -0.068267,
    "modes": [
      "overground"
    ],
    "lines": [
      "Greater Anglia",
      "Weaver"
    ],
    "child_stations": [
      "Rectory Road Rail Station"
    ]
  },
  {
    "name": "Southbury Rail Station",
    "lat": 51.648705,
    "lon": -0.052437,
    "modes": [
      "overground"
    ],
    "lines": [
      "Greater Anglia",
      "Weaver"
    ],
    "child_stations": [
      "Southbury Rail Station"
    ]
  },
  {
    "name": "Silver Street Rail Station",
    "lat": 51.614688,
    "lon": -0.06724,
    "modes": [
      "overground"
    ],
    "lines": [
      "Greater Anglia",
      "Weaver"
    ],
    "child_stations": [
      "Silver Street Rail Station"
    ]
  },
  {
    "name": "St James Street (London) Rail Station",
    "lat": 51.580981,
    "lon": -0.032918,
    "modes": [
      "overground"
    ],
    "lines": [
      "Weaver"
    ],
    "child_stations": [
      "St James Street (London) Rail Station"
    ]
  },
  {
    "name": "Stoke Newington Rail Station",
    "lat": 51.565233,
    "lon": -0.072887,
    "modes": [
      "overground"
    ],
    "lines": [
      "Greater Anglia",
      "Weaver"
    ],
    "child_stations": [
      "Stoke Newington Rail Station"
    ]
  },
  {
    "name": "Stamford Hill Rail Station",
    "lat": 51.574467,
    "lon": -0.076682,
    "modes": [
      "overground"
    ],
    "lines": [
      "Greater Anglia",
      "Weaver"
    ],
    "child_stations": [
      "Stamford Hill Rail Station"
    ]
  },
  {
    "name": "Theobalds Grove Rail Station",
    "lat": 51.692457,
    "lon": -0.034831,
    "modes": [
      "overground"
    ],
    "lines": [
      "Greater Anglia",
      "Weaver"
    ],
    "child_stations": [
      "Theobalds Grove Rail Station"
    ]
  },
  {
    "name": "Turkey Street Rail Station",
    "lat": 51.672628,
    "lon": -0.047217,
    "modes": [
      "overground"
    ],
    "lines": [
      "Greater Anglia",
      "Weaver"
    ],
    "child_stations": [
      "Turkey Street Rail Station"
    ]
  },
  {
    "name": "Wood Street Rail Station",
    "lat": 51.58658,
    "lon": -0.002405,
    "modes": [
      "overground"
    ],
    "lines": [
      "Weaver"
    ],
    "child_stations": [
      "Wood Street Rail Station"
    ]
  },
  {
    "name": "White Hart Lane Rail Station",
    "lat": 51.605037,
    "lon": -0.070914,
    "modes": [
      "overground"
    ],
    "lines": [
      "Greater Anglia",
      "Weaver"
    ],
    "child_stations": [
      "White Hart Lane Rail Station"
    ]
  },
  {
    "name": "Barking Riverside",
    "lat": 51.51953,
    "lon": 0.11596,
    "modes": [
      "overground"
    ],
    "lines": [
      "Suffragette"
    ],
    "child_stations": [
      "Barking Riverside"
    ]
  },
  {
    "name": "Crouch Hill Rail Station",
    "lat": 51.571302,
    "lon": -0.117149,
    "modes": [
      "overground"
    ],
    "lines": [
      "Suffragette"
    ],
    "child_stations": [
      "Crouch Hill Rail Station"
    ]
  },
  {
    "name": "Harringay Green Lanes Rail Station",
    "lat": 51.577182,
    "lon": -0.098144,
    "modes": [
      "overground"
    ],
    "lines": [
      "Suffragette"
    ],
    "child_stations": [
      "Harringay Green Lanes Rail Station"
    ]
  },
  {
    "name": "Leyton Midland Road Rail Station",
    "lat": 51.569725,
    "lon": -0.008051,
    "modes": [
      "overground"
    ],
    "lines": [
      "Suffragette"
    ],
    "child_stations": [
      "Leyton Midland Road Rail Station"
    ]
  },
  {
    "name": "Leytonstone High Road Rail Station",
    "lat": 51.563554,
    "lon": 0.008416,
    "modes": [
      "overground"
    ],
    "lines": [
      "Suffragette"
    ],
    "child_stations": [
      "Leytonstone High Road Rail Station"
    ]
  },
  {
    "name": "South Tottenham Rail Station",
    "lat": 51.580372,
    "lon": -0.072103,
    "modes": [
      "overground"
    ],
    "lines": [
      "Suffragette"
    ],
    "child_stations": [
      "South Tottenham Rail Station"
    ]
  },
  {
    "name": "Upper Holloway Rail Station",
    "lat": 51.563631,
    "lon": -0.129513,
    "modes": [
      "overground"
    ],
    "lines": [
      "Suffragette"
    ],
    "child_stations": [
      "Upper Holloway Rail Station"
    ]
  },
  {
    "name": "Woodgrange Park Rail Station",
    "lat": 51.549264,
    "lon": 0.044423,
    "modes": [
      "overground"
    ],
    "lines": [
      "Suffragette"
    ],
    "child_stations": [
      "Woodgrange Park Rail Station"
    ]
  },
  {
    "name": "Walthamstow Queens Road Rail Station",
    "lat": 51.581503,
    "lon": -0.023846,
    "modes": [
      "overground"
    ],
    "lines": [
      "Suffragette"
    ],
    "child_stations": [
      "Walthamstow Queens Road Rail Station"
    ]
  },
  {
    "name": "Wanstead Park Rail Station",
    "lat": 51.551693,
    "lon": 0.026213,
    "modes": [
      "overground"
    ],
    "lines": [
      "Suffragette"
    ],
    "child_stations": [
      "Wanstead Park Rail Station"
    ]
  },
  {
    "name": "Emerson Park Rail Station",
    "lat": 51.568642,
    "lon": 0.220113,
    "modes": [
      "overground"
    ],
    "lines": [
      "Liberty"
    ],
    "child_stations": [
      "Emerson Park Rail Station"
    ]
  },
  {
    "name": "Romford Rail Station",
    "lat": 51.574829,
    "lon": 0.183237,
    "modes": [
      "overground",
      "elizabeth-line"
    ],
    "lines": [
      "Liberty",
      "Greater Anglia",
      "Elizabeth line"
    ],
    "child_stations": [
      "Romford Rail Station"
    ]
  },