[
  {
    "name": "Acton Town Underground Station",
    "stationId": "940GZZLUACT",
    "naptanIds": [
      "940GZZLUACT"
    ],
    "modes": [
      "tube"
    ],
    "lines": [
      "District",
      "Piccadilly"
    ],
    "lat": 51.503057,
    "lon": -0.280462
  },
  {
    "name": "Aldgate East Underground Station",
    "stationId": "940GZZLUADE",
    "naptanIds": [
      "940GZZLUADE"
    ],
    "modes": [
      "tube"
    ],
    "lines": [
      "District",
      "Hammersmith & City"
    ],
    "lat": 51.515037,
    "lon": -0.072384
  },
  {
    "name": "Aldgate Underground Station",
    "stationId": "940GZZLUALD",
    "naptanIds": [
      "940GZZLUALD"
    ],
    "modes": [
      "tube"
    ],
    "lines": [
      "Circle",
      "Metropolitan"
    ],
    "lat": 51.514246,
    "lon": -0.075689
  },
  {
    "name": "Alperton Underground Station",
    "stationId": "940GZZLUALP",
    "naptanIds": [
      "940GZZLUALP"
    ],
    "modes": [
      "tube"
    ],
    "lines": [
      "Piccadilly"
    ],
    "lat": 51.540627,
    "lon": -0.29961
  },
  {
    "name": "Amersham Underground Station",
    "stationId": "HUBAMR",
    "naptanIds": [
      "9400ZZLUAMS1",
      "9400ZZLUAMS2",
      "940GZZLUAMS",
      "HUBAMR"
    ],
    "modes": [
      "tube"
    ],
    "lines": [
      "Chiltern Railways",
      "Metropolitan"
    ],
    "lat": 51.673926,
    "lon": -0.607489
  },
  {
    "name": "Angel Underground Station",
    "stationId": "940GZZLUAGL",
    "naptanIds": [
      "940GZZLUAGL"
    ],
    "modes": [
      "tube"
    ],
    "lines": [],
    "lat": 51.532624,
    "lon": -0.105898
  },
  {
    "name": "Archway Underground Station",
    "stationId": "940GZZLUACY",
    "naptanIds": [
      "940GZZLUACY"
    ],
    "modes": [
      "tube"
    ],
    "lines": [],
    "lat": 51.565478,
    "lon": -0.134819
  },
  {
    "name": "Arnos Grove Underground Station",
    "stationId": "940GZZLUASG",
    "naptanIds": [
      "940GZZLUASG"
    ],
    "modes": [
      "tube"
    ],
    "lines": [
      "Piccadilly"
    ],
    "lat": 51.616446,
    "lon": -0.133062
  },
  {
    "name": "Arsenal Underground Station",
    "stationId": "940GZZLUASL",
    "naptanIds": [
      "940GZZLUASL"
    ],
    "modes": [
      "tube"
    ],
    "lines": [
      "Piccadilly"
    ],
    "lat": 51.558655,
    "lon": -0.107457
  },
  {
    "name": "Baker Street Underground Station",
    "stationId": "940GZZLUBST",
    "naptanIds": [
      "940GZZLUBST"
    ],
    "modes": [
      "tube"
    ],
    "lines": [
      "Bakerloo",
      "Jubilee",
      "Hammersmith & City",
      "Circle",
      "Metropolitan"
    ],
    "lat": 51.522883,
    "lon": -0.15713
  },
  {
    "name": "Balham Underground Station",
    "stationId": "HUBBAL",
    "naptanIds": [
      "9400ZZLUBLM1",
      "9400ZZLUBLM2",
      "940GZZLUBLM",
      "HUBBAL"
    ],
    "modes": [
      "tube"
    ],
    "lines": [
      "Southern"
    ],
    "lat": 51.443969,
    "lon": -0.152265
  },
  {
    "name": "Bank DLR Station",
    "stationId": "HUBBAN",
    "naptanIds": [
      "9400ZZDLBNK1",
      "9400ZZDLBNK2",
      "9400ZZLUBNK1",
      "9400ZZLUBNK2",
      "9400ZZLUBNK3",
      "9400ZZLUBNK4",
      "9400ZZLUBNK5",
      "9400ZZLUBNK8",
      "940GZZDLBNK",
      "940GZZLUBNK",
      "HUBBAN"
    ],
    "modes": [
      "dlr",
      "tube"
    ],
    "lines": [
      "DLR",
      "Central",
      "Waterloo & City"
    ],
    "lat": 51.512171,
    "lon": -0.087911
  },
  {
    "name": "Barbican Underground Station",
    "stationId": "940GZZLUBBN",
    "naptanIds": [
      "940GZZLUBBN"
    ],
    "modes": [
      "tube"
    ],
    "lines": [
      "Circle",
      "Metropolitan",
      "Hammersmith & City"
    ],
    "lat": 51.520275,
    "lon": -0.097993
  },
  {
    "name": "Barking Station",
    "stationId": "HUBBKG",
    "naptanIds": [
      "9100BARKING1",
      "910GBARKING",
      "9400ZZLUBKG1",
      "9400ZZLUBKG2",
      "9400ZZLUBKG3",
      "940GZZLUBKG",
      "HUBBKG"
    ],
    "modes": [
      "overground",
      "tube"
    ],
    "lines": [
      "District",
      "c2c",
      "Hammersmith & City",
      "Suffragette"
    ],
    "lat": 51.539674,
    "lon": 0.080406
  },
  {
    "name": "Barkingside Underground Station",
    "stationId": "940GZZLUBKE",
    "naptanIds": [
      "940GZZLUBKE"
    ],
    "modes": [
      "tube"
    ],
    "lines": [
      "Central"
    ],
    "lat": 51.585689,
    "lon": 0.088585
  },
  {
    "name": "Barons Court Underground Station",
    "stationId": "940GZZLUBSC",
    "naptanIds": [
      "940GZZLUBSC"
    ],
    "modes": [
      "tube"
    ],
    "lines": [
      "District",
      "Piccadilly"
    ],
    "lat": 51.490311,
    "lon": -0.213427
  },
  {
    "name": "Battersea Power Station Underground Station",
    "stationId": "940GZZBPSUST",
    "naptanIds": [
      "940GZZBPSUST"
    ],
    "modes": [
      "tube"
    ],
    "lines": [],
    "lat": 51.479932,
    "lon": -0.142142
  },
  {
    "name": "Bayswater Underground Station",
    "stationId": "940GZZLUBWT",
    "naptanIds": [
      "940GZZLUBWT"
    ],
    "modes": [
      "tube"
    ],
    "lines": [
      "Circle",
      "District"
    ],
    "lat": 51.512284,
    "lon": -0.187938
  },
  {
    "name": "Becontree Underground Station",
    "stationId": "940GZZLUBEC",
    "naptanIds": [
      "940GZZLUBEC"
    ],
    "modes": [
      "tube"
    ],
    "lines": [
      "District"
    ],
    "lat": 51.540331,
    "lon": 0.127016
  },
  {
    "name": "Belsize Park Underground Station",
    "stationId": "940GZZLUBZP",
    "naptanIds": [
      "940GZZLUBZP"
    ],
    "modes": [
      "tube"
    ],
    "lines": [],
    "lat": 51.550529,
    "lon": -0.164783
  },
  {
    "name": "Bermondsey Underground Station",
    "stationId": "940GZZLUBMY",
    "naptanIds": [
      "940GZZLUBMY"
    ],
    "modes": [
      "tube"
    ],
    "lines": [
      "Jubilee"
    ],
    "lat": 51.49775,
    "lon": -0.063993
  },
  {
    "name": "Bethnal Green Underground Station",
    "stationId": "940GZZLUBLG",
    "naptanIds": [
      "940GZZLUBLG"
    ],
    "modes": [
      "tube"
    ],
    "lines": [
      "Central"
    ],
    "lat": 51.527222,
    "lon": -0.055506
  },
  {
    "name": "Blackfriars Underground Station",
    "stationId": "HUBBFR",
    "naptanIds": [
      "9400ZZLUBKF1",
      "9400ZZLUBKF2",
      "940GZZLUBKF",
      "HUBBFR"
    ],
    "modes": [
      "tube"
    ],
    "lines": [
      "Circle",
      "District",
      "Thameslink",
      "Southeastern"
    ],
    "lat": 51.511603,
    "lon": -0.103341
  },
  {
    "name": "Blackhorse Road Station",
    "stationId": "HUBBHO",
    "naptanIds": [
      "9100BLCHSRD0",
      "9100BLCHSRD1",
      "910GBLCHSRD",
      "9400ZZLUBLR1",
      "9400ZZLUBLR2",
      "940GZZLUBLR",
      "HUBBHO"
    ],
    "modes": [
      "overground",
      "tube"
    ],
    "lines": [
      "Victoria",
      "Suffragette"
    ],
    "lat": 51.586538,
    "lon": -0.041498
  },
  {
    "name": "Bond Street Station",
    "stationId": "HUBBDS",
    "naptanIds": [
      "9100BONDST0",
      "9100BONDST1",
      "910GBONDST",
      "9400ZZLUBND1",
      "9400ZZLUBND2",
      "9400ZZLUBND3",
      "9400ZZLUBND4",
      "940GZZLUBND",
      "HUBBDS"
    ],
    "modes": [
      "elizabeth-line",
      "tube"
    ],
    "lines": [
      "Elizabeth line",
      "Central",
      "Jubilee"
    ],
    "lat": 51.51369,
    "lon": -0.149517
  },
  {
    "name": "Borough Underground Station",
    "stationId": "940GZZLUBOR",
    "naptanIds": [
      "940GZZLUBOR"
    ],
    "modes": [
      "tube"
    ],
    "lines": [],
    "lat": 51.501199,
    "lon": -0.09337
  },
  {
    "name": "Boston Manor Underground Station",
    "stationId": "940GZZLUBOS",
    "naptanIds": [
      "940GZZLUBOS"
    ],
    "modes": [
      "tube"
    ],
    "lines": [
      "Piccadilly"
    ],
    "lat": 51.495635,
    "lon": -0.324939
  },
  {
    "name": "Bounds Green Underground Station",
    "stationId": "940GZZLUBDS",
    "naptanIds": [
      "940GZZLUBDS"
    ],
    "modes": [
      "tube"
    ],
    "lines": [
      "Piccadilly"
    ],
    "lat": 51.607034,
    "lon": -0.124235
  },
  {
    "name": "Bow Road Underground Station",
    "stationId": "940GZZLUBWR",
    "naptanIds": [
      "940GZZLUBWR"
    ],
    "modes": [
      "tube"
    ],
    "lines": [
      "District",
      "Hammersmith & City"
    ],
    "lat": 51.52694,
    "lon": -0.025128
  },
  {
    "name": "Brent Cross Underground Station",
    "stationId": "940GZZLUBTX",
    "naptanIds": [
      "940GZZLUBTX"
    ],
    "modes": [
      "tube"
    ],
    "lines": [],
    "lat": 51.57665,
    "lon": -0.213622
  },
  {
    "name": "Brixton Underground Station",
    "stationId": "HUBBRX",
    "naptanIds": [
      "9400ZZLUBXN1",
      "940GZZLUBXN",
      "HUBBRX"
    ],
    "modes": [
      "tube"
    ],
    "lines": [
      "Victoria",
      "Southeastern"
    ],
    "lat": 51.462477,
    "lon": -0.113987
  },
  {
    "name": "Bromley-by-Bow Underground Station",
    "stationId": "940GZZLUBBB",
    "naptanIds": [
      "940GZZLUBBB"
    ],
    "modes": [
      "tube"
    ],
    "lines": [
      "District",
      "Hammersmith & City"
    ],
    "lat": 51.524839,
    "lon": -0.011538
  },
  {
    "name": "Buckhurst Hill Underground Station",
    "stationId": "940GZZLUBKH",
    "naptanIds": [
      "940GZZLUBKH"
    ],
    "modes": [
      "tube"
    ],
    "lines": [
      "W14",
      "Central"
    ],
    "lat": 51.626605,
    "lon": 0.046757
  },
  {
    "name": "Burnt Oak Underground Station",
    "stationId": "940GZZLUBTK",
    "naptanIds": [
      "940GZZLUBTK"
    ],
    "modes": [
      "tube"
    ],
    "lines": [],
    "lat": 51.602774,
    "lon": -0.264048
  },
  {
    "name": "Caledonian Road Underground Station",
    "stationId": "940GZZLUCAR",
    "naptanIds": [
      "940GZZLUCAR"
    ],
    "modes": [
      "tube"
    ],
    "lines": [
      "Piccadilly"
    ],
    "lat": 51.548519,
    "lon": -0.118493
  },
  {
    "name": "Camden Town Underground Station",
    "stationId": "940GZZLUCTN",
    "naptanIds": [
      "940GZZLUCTN"
    ],
    "modes": [
      "tube"
    ],
    "lines": [],
    "lat": 51.539292,
    "lon": -0.14274
  },
  {
    "name": "Canada Water Station",
    "stationId": "HUBZCW",
    "naptanIds": [
      "9100CNDAW1",
      "9100CNDAW2",
      "910GCNDAW",
      "9400ZZLUCWR2",
      "9400ZZLUCWR3",
      "940GZZLUCWR",
      "HUBZCW"
    ],
    "modes": [
      "overground",
      "tube"
    ],
    "lines": [
      "Jubilee",
      "C10",
      "Windrush",
      "P12"
    ],
    "lat": 51.49799,
    "lon": -0.04972
  },
  {
    "name": "Canary Wharf Rail Station",
    "stationId": "HUBCAW",
    "naptanIds": [
      "9100CANWHRF0",
      "9100CANWHRF1",
      "910GCANWHRF",
      "9400ZZDLCAN1",
      "9400ZZDLCAN2",
      "9400ZZLUCYF1",
      "9400ZZLUCYF2",
      "940GZZDLCAN",
      "940GZZLUCYF",
      "HUBCAW"
    ],
    "modes": [
      "dlr",
      "elizabeth-line",
      "tube"
    ],
    "lines": [
      "Jubilee",
      "DLR",
      "D7",
      "Elizabeth line"
    ],
    "lat": 51.506321,
    "lon": -0.018815
  },
  {
    "name": "Canning Town DLR Station",
    "stationId": "HUBCAN",
    "naptanIds": [
      "9400ZZDLCGT1",
      "9400ZZDLCGT2",
      "9400ZZDLCGT3",
      "9400ZZDLCGT4",
      "9400ZZLUCGT1",
      "9400ZZLUCGT2",
      "940GZZDLCGT",
      "940GZZLUCGT",
      "HUBCAN"
    ],
    "modes": [
      "dlr",
      "tube"
    ],
    "lines": [
      "Jubilee",
      "DLR"
    ],
    "lat": 51.514464,
    "lon": 0.007856
  },
  {
    "name": "Cannon Street Underground Station",
    "stationId": "HUBCST",
    "naptanIds": [
      "9400ZZLUCST1",
      "9400ZZLUCST2",
      "940GZZLUCST",
      "HUBCST"
    ],
    "modes": [
      "tube"
    ],
    "lines": [
      "Circle",
      "District",
      "Southeastern"
    ],
    "lat": 51.511366,
    "lon": -0.090423
  },
  {
    "name": "Canons Park Underground Station",
    "stationId": "940GZZLUCPK",
    "naptanIds": [
      "940GZZLUCPK"
    ],
    "modes": [
      "tube"
    ],
    "lines": [
      "Jubilee"
    ],
    "lat": 51.607701,
    "lon": -0.294693
  },
  {
    "name": "Chalfont & Latimer Underground Station",
    "stationId": "HUBCFO",
    "naptanIds": [
      "9400ZZLUCAL1",
      "9400ZZLUCAL2",
      "940GZZLUCAL",
      "HUBCFO"
    ],
    "modes": [
      "tube"
    ],
    "lines": [
      "Chiltern Railways",
      "Metropolitan"
    ],
    "lat": 51.667966,
    "lon": -0.560647
  },
  {
    "name": "Chalk Farm Underground Station",
    "stationId": "940GZZLUCFM",
    "naptanIds": [
      "940GZZLUCFM"
    ],
    "modes": [
      "tube"
    ],
    "lines": [],
    "lat": 51.544118,
    "lon": -0.153388
  },
  {
    "name": "Chancery Lane Underground Station",
    "stationId": "940GZZLUCHL",
    "naptanIds": [
      "940GZZLUCHL"
    ],
    "modes": [
      "tube"
    ],
    "lines": [
      "Central"
    ],
    "lat": 51.518247,
    "lon": -0.111583
  },
  {
    "name": "Charing Cross Underground Station",
    "stationId": "HUBCHX",
    "naptanIds": [
      "9400ZZLUCHX1",
      "9400ZZLUCHX2",
      "9400ZZLUCHX4",
      "9400ZZLUCHX5",
      "940GZZLUCHX",
      "HUBCHX"
    ],
    "modes": [
      "tube"
    ],
    "lines": [
      "Bakerloo",
      "Southeastern"
    ],
    "lat": 51.507451,
    "lon": -0.128097
  },
  {
    "name": "Chesham Underground Station",
    "stationId": "940GZZLUCSM",
    "naptanIds": [
      "940GZZLUCSM"
    ],
    "modes": [
      "tube"
    ],
    "lines": [
      "Metropolitan"
    ],
    "lat": 51.705208,
    "lon": -0.611247
  },
  {
    "name": "Chigwell Underground Station",
    "stationId": "940GZZLUCWL",
    "naptanIds": [
      "940GZZLUCWL"
    ],
    "modes": [
      "tube"
    ],
    "lines": [
      "Central"
    ],
    "lat": 51.617916,
    "lon": 0.075041
  },
  {
    "name": "Chiswick Park Underground Station",
    "stationId": "940GZZLUCWP",
    "naptanIds": [
      "940GZZLUCWP"
    ],
    "modes": [
      "tube"
    ],
    "lines": [
      "District"
    ],
    "lat": 51.494627,
    "lon": -0.267972
  },
  {
    "name": "Chorleywood Underground Station",
    "stationId": "HUBCLW",
    "naptanIds": [
      "9400ZZLUCYD1",
      "9400ZZLUCYD2",
      "940GZZLUCYD",
      "HUBCLW"
    ],
    "modes": [
      "tube"
    ],
    "lines": [
      "Chiltern Railways",
      "Metropolitan"
    ],
    "lat": 51.653835,
    "lon": -0.51829
  },
  {
    "name": "Clapham Common Underground Station",
    "stationId": "940GZZLUCPC",
    "naptanIds": [
      "940GZZLUCPC"
    ],
    "modes": [
      "tube"
    ],
    "lines": [],
    "lat": 51.461742,
    "lon": -0.138317
  },
  {
    "name": "Clapham North Underground Station",
    "stationId": "940GZZLUCPN",
    "naptanIds": [
      "940GZZLUCPN"
    ],
    "modes": [
      "tube"
    ],
    "lines": [],
    "lat": 51.465135,
    "lon": -0.130016
  },
  {
    "name": "Clapham South Underground Station",
    "stationId": "940GZZLUCPS",
    "naptanIds": [
      "940GZZLUCPS"
    ],
    "modes": [
      "tube"
    ],
    "lines": [],
    "lat": 51.452654,
    "lon": -0.147582
  },
  {
    "name": "Cockfosters Underground Station",
    "stationId": "940GZZLUCKS",
    "naptanIds": [
      "940GZZLUCKS"
    ],
    "modes": [
      "tube"
    ],
    "lines": [
      "Piccadilly"
    ],
    "lat": 51.65152,
    "lon": -0.149171
  },
  {
    "name": "Colindale Underground Station",
    "stationId": "940GZZLUCND",
    "naptanIds": [
      "940GZZLUCND"
    ],
    "modes": [
      "tube"
    ],
    "lines": [],
    "lat": 51.595424,
    "lon": -0.249919
  },
  {
    "name": "Colliers Wood Underground Station",
    "stationId": "940GZZLUCSD",
    "naptanIds": [
      "940GZZLUCSD"
    ],
    "modes": [
      "tube"
    ],
    "lines": [],
    "lat": 51.41816,
    "lon": -0.178086
  },
  {
    "name": "Covent Garden Underground Station",
    "stationId": "940GZZLUCGN",
    "naptanIds": [
      "940GZZLUCGN"
    ],
    "modes": [
      "tube"
    ],
    "lines": [
      "Piccadilly"
    ],
    "lat": 51.513093,
    "lon": -0.124436
  },
  {
    "name": "Croxley Underground Station",
    "stationId": "940GZZLUCXY",
    "naptanIds": [
      "940GZZLUCXY"
    ],
    "modes": [
      "tube"
    ],
    "lines": [
      "Metropolitan"
    ],
    "lat": 51.647044,
    "lon": -0.441718
  },
  {
    "name": "Dagenham East Underground Station",
    "stationId": "940GZZLUDGE",
    "naptanIds": [
      "940GZZLUDGE"
    ],
    "modes": [
      "tube"
    ],
    "lines": [
      "District"
    ],
    "lat": 51.544096,
    "lon": 0.166017
  },
  {
    "name": "Dagenham Heathway Underground Station",
    "stationId": "940GZZLUDGY",
    "naptanIds": [
      "940GZZLUDGY"
    ],
    "modes": [
      "tube"
    ],
    "lines": [
      "District"
    ],
    "lat": 51.541639,
    "lon": 0.147527
  },
  {
    "name": "Debden Underground Station",
    "stationId": "940GZZLUDBN",
    "naptanIds": [
      "940GZZLUDBN"
    ],
    "modes": [
      "tube"
    ],
    "lines": [
      "Central"
    ],
    "lat": 51.645386,
    "lon": 0.083782
  },
  {
    "name": "Dollis Hill Underground Station",
    "stationId": "940GZZLUDOH",
    "naptanIds": [
      "940GZZLUDOH"
    ],
    "modes": [
      "tube"
    ],
    "lines": [
      "Jubilee"
    ],
    "lat": 51.551955,
    "lon": -0.239068
  },
  {
    "name": "Ealing Broadway Station",
    "stationId": "HUBEAL",
    "naptanIds": [
      "9100EALINGB0",
      "9100EALINGB1",
      "910GEALINGB",
      "9400ZZLUEBY1",
      "9400ZZLUEBY3",
      "9400ZZLUEBY4",
      "940GZZLUEBY",
      "HUBEAL"
    ],
    "modes": [
      "elizabeth-line",
      "tube"
    ],
    "lines": [
      "District",
      "E1",
      "E9",
      "Great Western Railway",
      "E10",
      "Elizabeth line",
      "Central"
    ],
    "lat": 51.514643,
    "lon": -0.30173
  },
  {
    "name": "Ealing Common Underground Station",
    "stationId": "940GZZLUECM",
    "naptanIds": [
      "940GZZLUECM"
    ],
    "modes": [
      "tube"
    ],
    "lines": [
      "District",
      "Piccadilly"
    ],
    "lat": 51.51014,
    "lon": -0.288265
  },
  {
    "name": "Earl's Court Underground Station",
    "stationId": "940GZZLUECT",
    "naptanIds": [
      "940GZZLUECT"
    ],
    "modes": [
      "tube"
    ],
    "lines": [
      "District",
      "Piccadilly"
    ],
    "lat": 51.492063,
    "lon": -0.193378
  },
  {
    "name": "East Acton Underground Station",
    "stationId": "940GZZLUEAN",
    "naptanIds": [
      "940GZZLUEAN"
    ],
    "modes": [
      "tube"
    ],
    "lines": [
      "Central"
    ],
    "lat": 51.516612,
    "lon": -0.247248
  },
  {
    "name": "East Finchley Underground Station",
    "stationId": "940GZZLUEFY",
    "naptanIds": [
      "940GZZLUEFY"
    ],
    "modes": [
      "tube"
    ],
    "lines": [],
    "lat": 51.587131,
    "lon": -0.165012
  },
  {
    "name": "East Ham Underground Station",
    "stationId": "940GZZLUEHM",
    "naptanIds": [
      "940GZZLUEHM"
    ],
    "modes": [
      "tube"
    ],
    "lines": [
      "District",
      "Hammersmith & City"
    ],
    "lat": 51.538948,
    "lon": 0.051186
  },
  {
    "name": "East Putney Underground Station",
    "stationId": "940GZZLUEPY",
    "naptanIds": [
      "940GZZLUEPY"
    ],
    "modes": [
      "tube"
    ],
    "lines": [
      "District"
    ],
    "lat": 51.459205,
    "lon": -0.211
  },
  {
    "name": "Eastcote Underground Station",
    "stationId": "940GZZLUEAE",
    "naptanIds": [
      "940GZZLUEAE"
    ],
    "modes": [
      "tube"
    ],
    "lines": [
      "Metropolitan",
      "Piccadilly"
    ],
    "lat": 51.576506,
    "lon": -0.397373
  },
  {
    "name": "Edgware Road (Bakerloo) Underground Station",
    "stationId": "940GZZLUERB",
    "naptanIds": [
      "940GZZLUERB"
    ],
    "modes": [
      "tube"
    ],
    "lines": [
      "Bakerloo"
    ],
    "lat": 51.520299,
    "lon": -0.17015
  },
  {
    "name": "Edgware Road (Circle Line) Underground Station",
    "stationId": "940GZZLUERC",
    "naptanIds": [
      "940GZZLUERC"
    ],
    "modes": [
      "tube"
    ],
    "lines": [
      "Circle",
      "District",
      "Hammersmith & City"
    ],
    "lat": 51.519858,
    "lon": -0.167832
  },
  {
    "name": "Edgware Underground Station",
    "stationId": "940GZZLUEGW",
    "naptanIds": [
      "940GZZLUEGW"
    ],
    "modes": [
      "tube"
    ],
    "lines": [],
    "lat": 51.613653,
    "lon": -0.274928
  },
  {
    "name": "Elephant & Castle Underground Station",
    "stationId": "HUBEPH",
    "naptanIds": [
      "9400ZZLUEAC1",
      "9400ZZLUEAC2",
      "9400ZZLUEAC3",
      "9400ZZLUEAC4",
      "940GZZLUEAC",
      "HUBEPH"
    ],
    "modes": [
      "tube"
    ],
    "lines": [
      "Bakerloo",
      "Thameslink",
      "Southeastern"
    ],
    "lat": 51.49581,
    "lon": -0.100985
  },
  {
    "name": "Elm Park Underground Station",
    "stationId": "940GZZLUEPK",
    "naptanIds": [
      "940GZZLUEPK"
    ],
    "modes": [
      "tube"
    ],
    "lines": [
      "District"
    ],
    "lat": 51.549775,
    "lon": 0.19864
  },
  {
    "name": "Embankment Underground Station",
    "stationId": "940GZZLUEMB",
    "naptanIds": [
      "940GZZLUEMB"
    ],
    "modes": [
      "tube"
    ],
    "lines": [
      "Circle",
      "District",
      "Bakerloo"
    ],
    "lat": 51.507058,
    "lon": -0.122666
  },
  {
    "name": "Epping Underground Station",
    "stationId": "940GZZLUEPG",
    "naptanIds": [
      "940GZZLUEPG"
    ],
    "modes": [
      "tube"
    ],
    "lines": [
      "Central"
    ],
    "lat": 51.69368,
    "lon": 0.113767
  },
  {
    "name": "Euston Square Underground Station",
    "stationId": "940GZZLUESQ",
    "naptanIds": [
      "940GZZLUESQ"
    ],
    "modes": [
      "tube"
    ],
    "lines": [
      "Circle",
      "Metropolitan",
      "Hammersmith & City"
    ],
    "lat": 51.525604,
    "lon": -0.135829
  },
  {
    "name": "Euston Station",
    "stationId": "HUBEUS",
    "naptanIds": [
      "9100EUSTON0",
      "910GEUSTON",
      "9400ZZLUEUS1",
      "9400ZZLUEUS2",
      "9400ZZLUEUS3",
      "9400ZZLUEUS4",
      "9400ZZLUEUS5",
      "9400ZZLUEUS6",
      "940GZZLUEUS",
      "HUBEUS"
    ],
    "modes": [
      "overground",
      "tube"
    ],
    "lines": [
      "West Midlands Trains",
      "Lioness",
      "Avanti West Coast",
      "Victoria"
    ],
    "lat": 51.528954,
    "lon": -0.135
  },
  {
    "name": "Fairlop Underground Station",
    "stationId": "940GZZLUFLP",
    "naptanIds": [
      "940GZZLUFLP"
    ],
    "modes": [
      "tube"
    ],
    "lines": [
      "Central"
    ],
    "lat": 51.595618,
    "lon": 0.091004
  },
  {
    "name": "Farringdon Station",
    "stationId": "HUBZFD",
    "naptanIds": [
      "9100FRNDXR0",
      "9100FRNDXR1",
      "910GFRNDXR",
      "9400ZZLUFCN1",
      "9400ZZLUFCN2",
      "940GZZLUFCN",
      "HUBZFD"
    ],
    "modes": [
      "elizabeth-line",
      "tube"
    ],
    "lines": [
      "Thameslink",
      "Hammersmith & City",
      "Circle",
      "Metropolitan",
      "Elizabeth line"
    ],
    "lat": 51.519961,
    "lon": -0.103051
  },
  {
    "name": "Finchley Central Underground Station",
    "stationId": "940GZZLUFYC",
    "naptanIds": [
      "940GZZLUFYC"
    ],
    "modes": [
      "tube"
    ],
    "lines": [],
    "lat": 51.600921,
    "lon": -0.192527
  },
  {
    "name": "Finchley Road Underground Station",
    "stationId": "940GZZLUFYR",
    "naptanIds": [
      "940GZZLUFYR"
    ],
    "modes": [
      "tube"
    ],
    "lines": [
      "Jubilee",
      "Metropolitan"
    ],
    "lat": 51.546825,
    "lon": -0.179845
  },
  {
    "name": "Finsbury Park Underground Station",
    "stationId": "HUBFPK",
    "naptanIds": [
      "9400ZZLUFPK1",
      "9400ZZLUFPK2",
      "9400ZZLUFPK3",
      "9400ZZLUFPK4",
      "940GZZLUFPK",
      "HUBFPK"
    ],
    "modes": [
      "tube"
    ],
    "lines": [
      "Piccadilly",
      "Victoria",
      "Thameslink",
      "Great Northern"
    ],
    "lat": 51.564388,
    "lon": -0.106036
  },
  {
    "name": "Fulham Broadway Underground Station",
    "stationId": "940GZZLUFBY",
    "naptanIds": [
      "940GZZLUFBY"
    ],
    "modes": [
      "tube"
    ],
    "lines": [
      "District"
    ],
    "lat": 51.480081,
    "lon": -0.195422
  },
  {
    "name": "Gants Hill Underground Station",
    "stationId": "940GZZLUGTH",
    "naptanIds": [
      "940GZZLUGTH"
    ],
    "modes": [
      "tube"
    ],
    "lines": [
      "Central"
    ],
    "lat": 51.576544,
    "lon": 0.066185
  },
  {
    "name": "Gloucester Road Underground Station",
    "stationId": "940GZZLUGTR",
    "naptanIds": [
      "940GZZLUGTR"
    ],
    "modes": [
      "tube"
    ],
    "lines": [
      "Circle",
      "District",
      "Piccadilly"
    ],
    "lat": 51.494316,
    "lon": -0.182658
  },
  {
    "name": "Golders Green Underground Station",
    "stationId": "940GZZLUGGN",
    "naptanIds": [
      "940GZZLUGGN"
    ],
    "modes": [
      "tube"
    ],
    "lines": [],
    "lat": 51.572259,
    "lon": -0.194039
  },
  {
    "name": "Goldhawk Road Underground Station",
    "stationId": "940GZZLUGHK",
    "naptanIds": [
      "940GZZLUGHK"
    ],
    "modes": [
      "tube"
    ],
    "lines": [
      "Circle",
      "Hammersmith & City"
    ],
    "lat": 51.502005,
    "lon": -0.226715
  },
  {
    "name": "Goodge Street Underground Station",
    "stationId": "940GZZLUGDG",
    "naptanIds": [
      "940GZZLUGDG"
    ],
    "modes": [
      "tube"
    ],
    "lines": [],
    "lat": 51.520599,
    "lon": -0.134361
  },
  {
    "name": "Grange Hill Underground Station",
    "stationId": "940GZZLUGGH",
    "naptanIds": [
      "940GZZLUGGH"
    ],
    "modes": [
      "tube"
    ],
    "lines": [
      "Central"
    ],
    "lat": 51.613378,
    "lon": 0.092066
  },
  {
    "name": "Great Portland Street Underground Station",
    "stationId": "940GZZLUGPS",
    "naptanIds": [
      "940GZZLUGPS"
    ],
    "modes": [
      "tube"
    ],
    "lines": [
      "Circle",
      "Metropolitan",
      "Hammersmith & City"
    ],
    "lat": 51.52384,
    "lon": -0.144262
  },
  {
    "name": "Green Park Underground Station",
    "stationId": "940GZZLUGPK",
    "naptanIds": [
      "940GZZLUGPK"
    ],
    "modes": [
      "tube"
    ],
    "lines": [
      "Jubilee",
      "Piccadilly",
      "Victoria"
    ],
    "lat": 51.506947,
    "lon": -0.142787
  },
  {
    "name": "Greenford Underground Station",
    "stationId": "HUBGFD",
    "naptanIds": [
      "9400ZZLUGFD1",
      "9400ZZLUGFD2",
      "940GZZLUGFD",
      "HUBGFD"
    ],
    "modes": [
      "tube"
    ],
    "lines": [
      "Central",
      "Great Western Railway"
    ],
    "lat": 51.542466,
    "lon": -0.345212
  },
  {
    "name": "Gunnersbury Station",
    "stationId": "HUBGUN",
    "naptanIds": [
      "9100GNRSBRY0",
      "910GGNRSBRY",
      "9400ZZLUGBY1",
      "9400ZZLUGBY2",
      "940GZZLUGBY",
      "HUBGUN"
    ],
    "modes": [
      "overground",
      "tube"
    ],
    "lines": [
      "District",
      "Mildmay"
    ],
    "lat": 51.491386,
    "lon": -0.275614
  },
  {
    "name": "Hainault Underground Station",
    "stationId": "940GZZLUHLT",
    "naptanIds": [
      "940GZZLUHLT"
    ],
    "modes": [
      "tube"
    ],
    "lines": [
      "Central"
    ],
    "lat": 51.603659,
    "lon": 0.093482
  },
  {
    "name": "Hammersmith (H&C Line) Underground Station",
    "stationId": "HUBHMS",
    "naptanIds": [
      "9400ZZLUHSC1",
      "9400ZZLUHSD1",
      "9400ZZLUHSD2",
      "9400ZZLUHSD3",
      "9400ZZLUHSD4",
      "940GZZLUHSC",
      "940GZZLUHSD",
      "HUBHMS"
    ],
    "modes": [
      "tube"
    ],
    "lines": [
      "District",
      "Hammersmith & City",
      "Circle",
      "Piccadilly",
      "H91"
    ],
    "lat": 51.493843,
    "lon": -0.22513
  },
  {
    "name": "Hampstead Underground Station",
    "stationId": "940GZZLUHTD",
    "naptanIds": [
      "940GZZLUHTD"
    ],
    "modes": [
      "tube"
    ],
    "lines": [],
    "lat": 51.556239,
    "lon": -0.177464
  },
  {
    "name": "Hanger Lane Underground Station",
    "stationId": "940GZZLUHGR",
    "naptanIds": [
      "940GZZLUHGR"
    ],
    "modes": [
      "tube"
    ],
    "lines": [
      "Central"
    ],
    "lat": 51.530177,
    "lon": -0.292704
  },
  {
    "name": "Harlesden Station",
    "stationId": "HUBHDN",
    "naptanIds": [
      "9100HARLSDN0",
      "9100HARLSDN1",
      "910GHARLSDN",
      "9400ZZLUHSN1",
      "9400ZZLUHSN2",
      "940GZZLUHSN",
      "HUBHDN"
    ],
    "modes": [
      "overground",
      "tube"
    ],
    "lines": [
      "Bakerloo",
      "Lioness"
    ],
    "lat": 51.536241,
    "lon": -0.257467
  },
  {
    "name": "Harrow & Wealdstone Station",
    "stationId": "HUBHRW",
    "naptanIds": [
      "9100HROWDC1",
      "9100HROWDC2",
      "910GHROW",
      "9400ZZLUHAW1",
      "9400ZZLUHAW2",
      "940GZZLUHAW",
      "HUBHRW"
    ],
    "modes": [
      "overground",
      "tube"
    ],
    "lines": [
      "Bakerloo",
      "Lioness",
      "West Midlands Trains"
    ],
    "lat": 51.59223,
    "lon": -0.335103
  },
  {
    "name": "Harrow-on-the-Hill Underground Station",
    "stationId": "HUBHOH",
    "naptanIds": [
      "9400ZZLUHOH1",
      "9400ZZLUHOH2",
      "940GZZLUHOH",
      "HUBHOH"
    ],
    "modes": [
      "tube"
    ],
    "lines": [
      "H10",
      "H18",
      "H19",
      "H14",
      "SL9",
      "H9",
      "Metropolitan",
      "H17",
      "Chiltern Railways",
      "H11",
      "SL10"
    ],
    "lat": 51.579086,
    "lon": -0.336565
  },
  {
    "name": "Hatton Cross Underground Station",
    "stationId": "940GZZLUHNX",
    "naptanIds": [
      "940GZZLUHNX"
    ],
    "modes": [
      "tube"
    ],
    "lines": [
      "Piccadilly"
    ],
    "lat": 51.466747,
    "lon": -0.423191
  },
  {
    "name": "Heathrow Terminal 4",
    "stationId": "HUBHX4",
    "naptanIds": [
      "9100HTRWTM40",
      "910GHTRWTM4",
      "9400ZZLUHR41",
      "940GZZLUHR4",
      "HUBHX4"
    ],
    "modes": [
      "elizabeth-line",
      "tube"
    ],
    "lines": [
      "Elizabeth line",
      "Piccadilly"
    ],
    "lat": 51.458674,
    "lon": -0.446256
  },
  {
    "name": "Heathrow Terminal 5",
    "stationId": "HUBHX5",
    "naptanIds": [
      "9100HTRWTM50",
      "910GHTRWTM5",
      "9400ZZLUHR51",
      "940GZZLUHR5",
      "HUBHX5"
    ],
    "modes": [
      "elizabeth-line",
      "tube"
    ],
    "lines": [
      "Elizabeth line",
      "Piccadilly",
      "Heathrow Express"
    ],
    "lat": 51.472193,
    "lon": -0.4864
  },
  {
    "name": "Heathrow Terminals 2 & 3 Rail Station",
    "stationId": "HUBH13",
    "naptanIds": [
      "9100HTRWAPT0",
      "910GHTRWAPT",
      "9400ZZLUHRC1",
      "9400ZZLUHRC2",
      "940GZZLUHRC",
      "HUBH13"
    ],
    "modes": [
      "elizabeth-line",
      "tube"
    ],
    "lines": [
      "Elizabeth line",
      "A10",
      "Heathrow Express",
      "SL9",
      "U3",
      "SL7",
      "Piccadilly"
    ],
    "lat": 51.471987,
    "lon": -0.454788
  },
  {
    "name": "Hendon Central Underground Station",
    "stationId": "940GZZLUHCL",
    "naptanIds": [
      "940GZZLUHCL"
    ],
    "modes": [
      "tube"
    ],
    "lines": [],
    "lat": 51.583301,
    "lon": -0.226424
  },
  {
    "name": "High Barnet Underground Station",
    "stationId": "940GZZLUHBT",
    "naptanIds": [
      "940GZZLUHBT"
    ],
    "modes": [
      "tube"
    ],
    "lines": [],
    "lat": 51.650541,
    "lon": -0.194298
  },
  {
    "name": "High Street Kensington Underground Station",
    "stationId": "940GZZLUHSK",
    "naptanIds": [
      "940GZZLUHSK"
    ],
    "modes": [
      "tube"
    ],
    "lines": [
      "Circle",
      "District"
    ],
    "lat": 51.501055,
    "lon": -0.192792
  },
  {
    "name": "Highbury & Islington Station",
    "stationId": "HUBHHY",
    "naptanIds": [
      "9100HIGBYA3",
      "9100HIGHBYA1",
      "9100HIGHBYA2",
      "910GHGHI",
      "9400ZZLUHAI1",
      "9400ZZLUHAI2",
      "940GZZLUHAI",
      "HUBHHY"
    ],
    "modes": [
      "overground",
      "tube"
    ],
    "lines": [
      "Mildmay",
      "Windrush",
      "Victoria",
      "Great Northern"
    ],
    "lat": 51.546032,
    "lon": -0.104246
  },
  {
    "name": "Highgate Underground Station",
    "stationId": "940GZZLUHGT",
    "naptanIds": [
      "940GZZLUHGT"
    ],
    "modes": [
      "tube"
    ],
    "lines": [],
    "lat": 51.577532,
    "lon": -0.145857
  },
  {
    "name": "Hillingdon Underground Station",
    "stationId": "940GZZLUHGD",
    "naptanIds": [
      "940GZZLUHGD"
    ],
    "modes": [
      "tube"
    ],
    "lines": [
      "Metropolitan",
      "Piccadilly"
    ],
    "lat": 51.553715,
    "lon": -0.449828
  },
  {
    "name": "Holborn Underground Station",
    "stationId": "940GZZLUHBN",
    "naptanIds": [
      "940GZZLUHBN"
    ],
    "modes": [
      "tube"
    ],
    "lines": [
      "Piccadilly",
      "Central"
    ],
    "lat": 51.51758,
    "lon": -0.120475
  },
  {
    "name": "Holland Park Underground Station",
    "stationId": "940GZZLUHPK",
    "naptanIds": [
      "940GZZLUHPK"
    ],
    "modes": [
      "tube"
    ],
    "lines": [
      "Central"
    ],
    "lat": 51.507143,
    "lon": -0.205679
  },
  {
    "name": "Holloway Road Underground Station",
    "stationId": "940GZZLUHWY",
    "naptanIds": [
      "940GZZLUHWY"
    ],
    "modes": [
      "tube"
    ],
    "lines": [
      "Piccadilly"
    ],
    "lat": 51.552697,
    "lon": -0.113244
  },
  {
    "name": "Hornchurch Underground Station",
    "stationId": "940GZZLUHCH",
    "naptanIds": [
      "940GZZLUHCH"
    ],
    "modes": [
      "tube"
    ],
    "lines": [
      "District"
    ],
    "lat": 51.554093,
    "lon": 0.219116
  },
  {
    "name": "Hounslow Central Underground Station",
    "stationId": "940GZZLUHWC",
    "naptanIds": [
      "940GZZLUHWC"
    ],
    "modes": [
      "tube"
    ],
    "lines": [
      "Piccadilly"
    ],
    "lat": 51.471295,
    "lon": -0.366578
  },
  {
    "name": "Hounslow East Underground Station",
    "stationId": "940GZZLUHWE",
    "naptanIds": [
      "940GZZLUHWE"
    ],
    "modes": [
      "tube"
    ],
    "lines": [
      "Piccadilly"
    ],
    "lat": 51.473213,
    "lon": -0.356474
  },
  {
    "name": "Hounslow West Underground Station",
    "stationId": "940GZZLUHWT",
    "naptanIds": [
      "940GZZLUHWT"
    ],
    "modes": [
      "tube"
    ],
    "lines": [
      "Piccadilly"
    ],
    "lat": 51.473469,
    "lon": -0.386544
  },
  {
    "name": "Hyde Park Corner Underground Station",
    "stationId": "940GZZLUHPC",
    "naptanIds": [
      "940GZZLUHPC"
    ],
    "modes": [
      "tube"
    ],
    "lines": [
      "Piccadilly"
    ],
    "lat": 51.503035,
    "lon": -0.152441
  },
  {
    "name": "Ickenham Underground Station",
    "stationId": "940GZZLUICK",
    "naptanIds": [
      "940GZZLUICK"
    ],
    "modes": [
      "tube"
    ],
    "lines": [
      "Piccadilly",
      "Metropolitan"
    ],
    "lat": 51.561992,
    "lon": -0.442001
  },
  {
    "name": "Kennington Underground Station",
    "stationId": "940GZZLUKNG",
    "naptanIds": [
      "940GZZLUKNG"
    ],
    "modes": [
      "tube"
    ],
    "lines": [],
    "lat": 51.488337,
    "lon": -0.105963
  },
  {
    "name": "Kensal Green Station",
    "stationId": "HUBKNL",
    "naptanIds": [
      "9100KENSLG0",
      "9100KENSLG1",
      "910GKENSLG",
      "9400ZZLUKSL1",
      "9400ZZLUKSL2",
      "940GZZLUKSL",
      "HUBKNL"
    ],
    "modes": [
      "overground",
      "tube"
    ],
    "lines": [
      "Bakerloo",
      "Lioness"
    ],
    "lat": 51.53056,
    "lon": -0.224597
  },
  {
    "name": "Kensington (Olympia) Station",
    "stationId": "HUBKPA",
    "naptanIds": [
      "9100KENOLYM0",
      "9100KENOLYM1",
      "910GKENOLYM",
      "9400ZZLUKOY1",
      "940GZZLUKOY",
      "HUBKPA"
    ],
    "modes": [
      "overground",
      "tube"
    ],
    "lines": [
      "District",
      "Mildmay"
    ],
    "lat": 51.49788,
    "lon": -0.210293
  },
  {
    "name": "Kentish Town Underground Station",
    "stationId": "HUBKTN",
    "naptanIds": [
      "9400ZZLUKSH1",
      "9400ZZLUKSH2",
      "940GZZLUKSH",
      "HUBKTN"
    ],
    "modes": [
      "tube"
    ],
    "lines": [
      "East Midlands Railway",
      "Thameslink"
    ],
    "lat": 51.550356,
    "lon": -0.140702
  },
  {
    "name": "Kenton Station",
    "stationId": "HUBKNT",
    "naptanIds": [
      "9100KTON0",
      "9100KTON1",
      "910GKTON",
      "9400ZZLUKEN1",
      "9400ZZLUKEN2",
      "940GZZLUKEN",
      "HUBKNT"
    ],
    "modes": [
      "overground",
      "tube"
    ],
    "lines": [
      "Bakerloo",
      "Lioness"
    ],
    "lat": 51.58162,
    "lon": -0.316829
  },
  {
    "name": "Kew Gardens Station",
    "stationId": "HUBKWG",
    "naptanIds": [
      "9100KEWGRDN0",
      "9100KEWGRDN1",
      "910GKEWGRDN",
      "9400ZZLUKWG1",
      "9400ZZLUKWG2",
      "940GZZLUKWG",
      "HUBKWG"
    ],
    "modes": [
      "overground",
      "tube"
    ],
    "lines": [
      "District",
      "Mildmay"
    ],
    "lat": 51.476868,
    "lon": -0.285133
  },
  {
    "name": "Kilburn Park Underground Station",
    "stationId": "940GZZLUKPK",
    "naptanIds": [
      "940GZZLUKPK"
    ],
    "modes": [
      "tube"
    ],
    "lines": [
      "Bakerloo"
    ],
    "lat": 51.534979,
    "lon": -0.194232
  },
  {
    "name": "Kilburn Underground Station",
    "stationId": "940GZZLUKBN",
    "naptanIds": [
      "940GZZLUKBN"
    ],
    "modes": [
      "tube"
    ],
    "lines": [
      "Jubilee"
    ],
    "lat": 51.547183,
    "lon": -0.204248
  },
  {
    "name": "King's Cross St. Pancras Underground Station",
    "stationId": "HUBKGX",
    "naptanIds": [
      "9400ZZLUKSX1",
      "9400ZZLUKSX2",
      "9400ZZLUKSX3",
      "9400ZZLUKSX4",
      "9400ZZLUKSX5",
      "9400ZZLUKSX6",
      "9400ZZLUKSX7",
      "9400ZZLUKSX8",
      "940GZZLUKSX",
      "HUBKGX"
    ],
    "modes": [
      "tube"
    ],
    "lines": [
      "Thameslink",
      "Grand Central",
      "East Midlands Railway",
      "Victoria",
      "Hammersmith & City",
      "Circle",
      "Metropolitan",
      "London North Eastern Railway",
      "Hull Trains",
      "Lumo",
      "Piccadilly",
      "Great Northern",
      "Southeastern"
    ],
    "lat": 51.530433,
    "lon": -0.12231
  },
  {
    "name": "Kingsbury Underground Station",
    "stationId": "940GZZLUKBY",
    "naptanIds": [
      "940GZZLUKBY"
    ],
    "modes": [
      "tube"
    ],
    "lines": [
      "Jubilee"
    ],
    "lat": 51.584845,
    "lon": -0.27879
  },
  {
    "name": "Knightsbridge Underground Station",
    "stationId": "940GZZLUKNB",
    "naptanIds": [
      "940GZZLUKNB"
    ],
    "modes": [
      "tube"
    ],
    "lines": [
      "C1",
      "Piccadilly"
    ],
    "lat": 51.501669,
    "lon": -0.160508
  },
  {
    "name": "Ladbroke Grove Underground Station",
    "stationId": "940GZZLULAD",
    "naptanIds": [
      "940GZZLULAD"
    ],
    "modes": [
      "tube"
    ],
    "lines": [
      "Circle",
      "Hammersmith & City"
    ],
    "lat": 51.517449,
    "lon": -0.210391
  },
  {
    "name": "Lambeth North Underground Station",
    "stationId": "940GZZLULBN",
    "naptanIds": [
      "940GZZLULBN"
    ],
    "modes": [
      "tube"
    ],
    "lines": [
      "Bakerloo"
    ],
    "lat": 51.498808,
    "lon": -0.112315
  },
  {
    "name": "Lancaster Gate Underground Station",
    "stationId": "940GZZLULGT",
    "naptanIds": [
      "940GZZLULGT"
    ],
    "modes": [
      "tube"
    ],
    "lines": [
      "Central"
    ],
    "lat": 51.511723,
    "lon": -0.175494
  },
  {
    "name": "Latimer Road Underground Station",
    "stationId": "940GZZLULRD",
    "naptanIds": [
      "940GZZLULRD"
    ],
    "modes": [
      "tube"
    ],
    "lines": [
      "Circle",
      "Hammersmith & City"
    ],
    "lat": 51.513389,
    "lon": -0.217799
  },
  {
    "name": "Leicester Square Underground Station",
    "stationId": "940GZZLULSQ",
    "naptanIds": [
      "940GZZLULSQ"
    ],
    "modes": [
      "tube"
    ],
    "lines": [
      "Piccadilly"
    ],
    "lat": 51.511386,
    "lon": -0.128426
  },
  {
    "name": "Leyton Underground Station",
    "stationId": "940GZZLULYN",
    "naptanIds": [
      "940GZZLULYN"
    ],
    "modes": [
      "tube"
    ],
    "lines": [
      "Central"
    ],
    "lat": 51.556589,
    "lon": -0.005523
  },
  {
    "name": "Leytonstone Underground Station",
    "stationId": "940GZZLULYS",
    "naptanIds": [
      "940GZZLULYS"
    ],
    "modes": [
      "tube"
    ],
    "lines": [
      "Central"
    ],
    "lat": 51.568324,
    "lon": 0.008194
  },
  {
    "name": "Liverpool Street Station",
    "stationId": "HUBLST",
    "naptanIds": [
      "9100LIVST0",
      "9100LIVSTLL0",
      "9100LIVSTLL1",
      "910GLIVST",
      "910GLIVSTLL",
      "9400ZZLULVT1",
      "9400ZZLULVT2",
      "9400ZZLULVT3",
      "9400ZZLULVT4",
      "940GZZLULVT",
      "HUBLST"
    ],
    "modes": [
      "overground",
      "elizabeth-line",
      "tube"
    ],
    "lines": [
      "Weaver",
      "Hammersmith & City",
      "Circle",
      "Greater Anglia",
      "Metropolitan",
      "Elizabeth line",
      "c2c",
      "Central"
    ],
    "lat": 51.518381,
    "lon": -0.081092
  },
  {
    "name": "London Bridge Underground Station",
    "stationId": "HUBLBG",
    "naptanIds": [
      "9400ZZLULNB1",
      "9400ZZLULNB2",
      "9400ZZLULNB3",
      "9400ZZLULNB4",
      "940GZZLULNB",
      "HUBLBG"
    ],
    "modes": [
      "tube"
    ],
    "lines": [
      "Jubilee",
      "Southern",
      "Thameslink",
      "Southeastern"
    ],
    "lat": 51.505716,
    "lon": -0.088599
  },
  {
    "name": "Loughton Underground Station",
    "stationId": "940GZZLULGN",
    "naptanIds": [
      "940GZZLULGN"
    ],
    "modes": [
      "tube"
    ],
    "lines": [
      "W14",
      "Central"
    ],
    "lat": 51.641443,
    "lon": 0.055476
  },
  {
    "name": "Maida Vale Underground Station",
    "stationId": "940GZZLUMVL",
    "naptanIds": [
      "940GZZLUMVL"
    ],
    "modes": [
      "tube"
    ],
    "lines": [
      "Bakerloo"
    ],
    "lat": 51.529777,
    "lon": -0.185758
  },
  {
    "name": "Manor House Underground Station",
    "stationId": "940GZZLUMRH",
    "naptanIds": [
      "940GZZLUMRH"
    ],
    "modes": [
      "tube"
    ],
    "lines": [
      "Piccadilly"
    ],
    "lat": 51.570738,
    "lon": -0.096118
  },
  {
    "name": "Mansion House Underground Station",
    "stationId": "940GZZLUMSH",
    "naptanIds": [
      "940GZZLUMSH"
    ],
    "modes": [
      "tube"
    ],
    "lines": [
      "Circle",
      "District"
    ],
    "lat": 51.512117,
    "lon": -0.094009
  },
  {
    "name": "Marble Arch Underground Station",
    "stationId": "940GZZLUMBA",
    "naptanIds": [
      "940GZZLUMBA"
    ],
    "modes": [
      "tube"
    ],
    "lines": [
      "Central"
    ],
    "lat": 51.513424,
    "lon": -0.158953
  },
  {
    "name": "Marylebone Underground Station",
    "stationId": "HUBMYB",
    "naptanIds": [
      "9400ZZLUMYB1",
      "9400ZZLUMYB2",
      "940GZZLUMYB",
      "HUBMYB"
    ],
    "modes": [
      "tube"
    ],
    "lines": [
      "Bakerloo",
      "Chiltern Railways"
    ],
    "lat": 51.522119,
    "lon": -0.163475
  },
  {
    "name": "Mile End Underground Station",
    "stationId": "940GZZLUMED",
    "naptanIds": [
      "940GZZLUMED"
    ],
    "modes": [
      "tube"
    ],
    "lines": [
      "District",
      "Central",
      "Hammersmith & City"
    ],
    "lat": 51.525122,
    "lon": -0.03364
  },
  {
    "name": "Mill Hill East Underground Station",
    "stationId": "940GZZLUMHL",
    "naptanIds": [
      "940GZZLUMHL"
    ],
    "modes": [
      "tube"
    ],
    "lines": [],
    "lat": 51.608229,
    "lon": -0.209986
  },
  {
    "name": "Monument Underground Station",
    "stationId": "940GZZLUMMT",
    "naptanIds": [
      "940GZZLUMMT"
    ],
    "modes": [
      "tube"
    ],
    "lines": [
      "Circle",
      "District"
    ],
    "lat": 51.5107,
    "lon": -0.085969
  },
  {
    "name": "Moor Park Underground Station",
    "stationId": "940GZZLUMPK",
    "naptanIds": [
      "940GZZLUMPK"
    ],
    "modes": [
      "tube"
    ],
    "lines": [
      "Metropolitan"
    ],
    "lat": 51.629845,
    "lon": -0.432454
  },
  {
    "name": "Moorgate Underground Station",
    "stationId": "HUBZMG",
    "naptanIds": [
      "9400ZZLUMGT1",
      "9400ZZLUMGT2",
      "9400ZZLUMGT3",
      "9400ZZLUMGT4",
      "940GZZLUMGT",
      "HUBZMG"
    ],
    "modes": [
      "tube"
    ],
    "lines": [
      "Circle",
      "Metropolitan",
      "Great Northern",
      "Hammersmith & City"
    ],
    "lat": 51.518463,
    "lon": -0.089406
  },
  {
    "name": "Morden Underground Station",
    "stationId": "940GZZLUMDN",
    "naptanIds": [
      "940GZZLUMDN"
    ],
    "modes": [
      "tube"
    ],
    "lines": [],
    "lat": 51.402142,
    "lon": -0.194839
  },
  {
    "name": "Mornington Crescent Underground Station",
    "stationId": "940GZZLUMTC",
    "naptanIds": [
      "940GZZLUMTC"
    ],
    "modes": [
      "tube"
    ],
    "lines": [],
    "lat": 51.534679,
    "lon": -0.138789
  },
  {
    "name": "Neasden Underground Station",
    "stationId": "940GZZLUNDN",
    "naptanIds": [
      "940GZZLUNDN"
    ],
    "modes": [
      "tube"
    ],
    "lines": [
      "Jubilee"
    ],
    "lat": 51.553986,
    "lon": -0.249837
  },
  {
    "name": "Newbury Park Underground Station",
    "stationId": "940GZZLUNBP",
    "naptanIds": [
      "940GZZLUNBP"
    ],
    "modes": [
      "tube"
    ],
    "lines": [
      "Central"
    ],
    "lat": 51.575726,
    "lon": 0.090004
  },
  {
    "name": "Nine Elms Underground Station",
    "stationId": "940GZZNEUGST",
    "naptanIds": [
      "940GZZNEUGST"
    ],
    "modes": [
      "tube"
    ],
    "lines": [],
    "lat": 51.479912,
    "lon": -0.128476
  },
  {
    "name": "North Acton Underground Station",
    "stationId": "940GZZLUNAN",
    "naptanIds": [
      "940GZZLUNAN"
    ],
    "modes": [
      "tube"
    ],
    "lines": [
      "Central"
    ],
    "lat": 51.523524,
    "lon": -0.259755
  },
  {
    "name": "North Ealing Underground Station",
    "stationId": "940GZZLUNEN",
    "naptanIds": [
      "940GZZLUNEN"
    ],
    "modes": [
      "tube"
    ],
    "lines": [
      "Piccadilly"
    ],
    "lat": 51.517505,
    "lon": -0.288868
  },
  {
    "name": "North Greenwich Underground Station",
    "stationId": "HUBNGW",
    "naptanIds": [
      "9400ZZLUNGW1",
      "9400ZZLUNGW2",
      "940GZZLUNGW",
      "HUBNGW"
    ],
    "modes": [
      "tube"
    ],
    "lines": [
      "Jubilee",
      "London Cable Car"
    ],
    "lat": 51.500382,
    "lon": 0.005191
  },
  {
    "name": "North Harrow Underground Station",
    "stationId": "940GZZLUNHA",
    "naptanIds": [
      "940GZZLUNHA"
    ],
    "modes": [
      "tube"
    ],
    "lines": [
      "Metropolitan"
    ],
    "lat": 51.584872,
    "lon": -0.362408
  },
  {
    "name": "North Wembley Station",
    "stationId": "HUBNWB",
    "naptanIds": [
      "9100NWEMBLY1",
      "9100NWEMBLY2",
      "910GNWEMBLY",
      "9400ZZLUNWY1",
      "9400ZZLUNWY2",
      "940GZZLUNWY",
      "HUBNWB"
    ],
    "modes": [
      "overground",
      "tube"
    ],
    "lines": [
      "Bakerloo",
      "Lioness"
    ],
    "lat": 51.562504,
    "lon": -0.303858
  },
  {
    "name": "Northfields Underground Station",
    "stationId": "940GZZLUNFD",
    "naptanIds": [
      "940GZZLUNFD"
    ],
    "modes": [
      "tube"
    ],
    "lines": [
      "Piccadilly"
    ],
    "lat": 51.499319,
    "lon": -0.314719
  },
  {
    "name": "Northolt Underground Station",
    "stationId": "940GZZLUNHT",
    "naptanIds": [
      "940GZZLUNHT"
    ],
    "modes": [
      "tube"
    ],
    "lines": [
      "Central"
    ],
    "lat": 51.548236,
    "lon": -0.368699
  },
  {
    "name": "Northwick Park Underground Station",
    "stationId": "940GZZLUNKP",
    "naptanIds": [
      "940GZZLUNKP"
    ],
    "modes": [
      "tube"
    ],
    "lines": [
      "Metropolitan"
    ],
    "lat": 51.578481,
    "lon": -0.318056
  },
  {
    "name": "Northwood Hills Underground Station",
    "stationId": "940GZZLUNWH",
    "naptanIds": [
      "940GZZLUNWH"
    ],
    "modes": [
      "tube"
    ],
    "lines": [
      "Metropolitan"
    ],
    "lat": 51.600572,
    "lon": -0.409464
  },
  {
    "name": "Northwood Underground Station",
    "stationId": "940GZZLUNOW",
    "naptanIds": [
      "940GZZLUNOW"
    ],
    "modes": [
      "tube"
    ],
    "lines": [
      "Metropolitan"
    ],
    "lat": 51.611053,
    "lon": -0.423829
  },
  {
    "name": "Notting Hill Gate Underground Station",
    "stationId": "940GZZLUNHG",
    "naptanIds": [
      "940GZZLUNHG"
    ],
    "modes": [
      "tube"
    ],
    "lines": [
      "Circle",
      "District",
      "Central"
    ],
    "lat": 51.509128,
    "lon": -0.196104
  },
  {
    "name": "Oakwood Underground Station",
    "stationId": "940GZZLUOAK",
    "naptanIds": [
      "940GZZLUOAK"
    ],
    "modes": [
      "tube"
    ],
    "lines": [
      "Piccadilly"
    ],
    "lat": 51.647726,
    "lon": -0.132182
  },
  {
    "name": "Old Street Underground Station",
    "stationId": "HUBOLD",
    "naptanIds": [
      "9400ZZLUODS1",
      "9400ZZLUODS2",
      "940GZZLUODS",
      "HUBOLD"
    ],
    "modes": [
      "tube"
    ],
    "lines": [
      "Great Northern"
    ],
    "lat": 51.524988,
    "lon": -0.087547
  },
  {
    "name": "Osterley Underground Station",
    "stationId": "940GZZLUOSY",
    "naptanIds": [
      "940GZZLUOSY"
    ],
    "modes": [
      "tube"
    ],
    "lines": [
      "Piccadilly"
    ],
    "lat": 51.481274,
    "lon": -0.352224
  },
  {
    "name": "Oval Underground Station",
    "stationId": "940GZZLUOVL",
    "naptanIds": [
      "940GZZLUOVL"
    ],
    "modes": [
      "tube"
    ],
    "lines": [],
    "lat": 51.48185,
    "lon": -0.112439
  },
  {
    "name": "Oxford Circus Underground Station",
    "stationId": "940GZZLUOXC",
    "naptanIds": [
      "940GZZLUOXC"
    ],
    "modes": [
      "tube"
    ],
    "lines": [
      "Bakerloo",
      "Victoria",
      "Central"
    ],
    "lat": 51.515224,
    "lon": -0.141903
  },
  {
    "name": "Paddington Rail Station",
    "stationId": "HUBPAD",
    "naptanIds": [
      "9100PADTLL0",
      "9100PADTLL1",
      "9100PADTON0",
      "910GPADTLL",
      "910GPADTON",
      "9400ZZLUPAC1",
      "9400ZZLUPAC2",
      "9400ZZLUPAC3",
      "9400ZZLUPAC4",
      "9400ZZLUPAH1",
      "9400ZZLUPAH2",
      "940GZZLUPAC",
      "940GZZLUPAH",
      "HUBPAD"
    ],
    "modes": [
      "elizabeth-line",
      "tube"
    ],
    "lines": [
      "Bakerloo",
      "District",
      "Heathrow Express",
      "Hammersmith & City",
      "Great Western Railway",
      "Circle",
      "Elizabeth line"
    ],
    "lat": 51.515721,
    "lon": -0.177021
  },
  {
    "name": "Park Royal Underground Station",
    "stationId": "940GZZLUPKR",
    "naptanIds": [
      "940GZZLUPKR"
    ],
    "modes": [
      "tube"
    ],
    "lines": [
      "Piccadilly"
    ],
    "lat": 51.527123,
    "lon": -0.284341
  },
  {
    "name": "Parsons Green Underground Station",
    "stationId": "940GZZLUPSG",
    "naptanIds": [
      "940GZZLUPSG"
    ],
    "modes": [
      "tube"
    ],
    "lines": [
      "District"
    ],
    "lat": 51.475277,
    "lon": -0.20117
  },
  {
    "name": "Perivale Underground Station",
    "stationId": "940GZZLUPVL",
    "naptanIds": [
      "940GZZLUPVL"
    ],
    "modes": [
      "tube"
    ],
    "lines": [
      "Central"
    ],
    "lat": 51.536717,
    "lon": -0.323446
  },
  {
    "name": "Piccadilly Circus Underground Station",
    "stationId": "940GZZLUPCC",
    "naptanIds": [
      "940GZZLUPCC"
    ],
    "modes": [
      "tube"
    ],
    "lines": [
      "Bakerloo",
      "Piccadilly"
    ],
    "lat": 51.51005,
    "lon": -0.133798
  },
  {
    "name": "Pimlico Underground Station",
    "stationId": "940GZZLUPCO",
    "naptanIds": [
      "940GZZLUPCO"
    ],
    "modes": [
      "tube"
    ],
    "lines": [
      "Victoria"
    ],
    "lat": 51.489097,
    "lon": -0.133761
  },
  {
    "name": "Pinner Underground Station",
    "stationId": "940GZZLUPNR",
    "naptanIds": [
      "940GZZLUPNR"
    ],
    "modes": [
      "tube"
    ],
    "lines": [
      "Metropolitan"
    ],
    "lat": 51.592901,
    "lon": -0.381161
  },
  {
    "name": "Plaistow Underground Station",
    "stationId": "940GZZLUPLW",
    "naptanIds": [
      "940GZZLUPLW"
    ],
    "modes": [
      "tube"
    ],
    "lines": [
      "District",
      "Hammersmith & City"
    ],
    "lat": 51.531341,
    "lon": 0.017451
  },
  {
    "name": "Preston Road Underground Station",
    "stationId": "940GZZLUPRD",
    "naptanIds": [
      "940GZZLUPRD"
    ],
    "modes": [
      "tube"
    ],
    "lines": [
      "Metropolitan"
    ],
    "lat": 51.571972,
    "lon": -0.295107
  },
  {
    "name": "Putney Bridge Underground Station",
    "stationId": "940GZZLUPYB",
    "naptanIds": [
      "940GZZLUPYB"
    ],
    "modes": [
      "tube"
    ],
    "lines": [
      "District"
    ],
    "lat": 51.468262,
    "lon": -0.208731
  },
  {
    "name": "Queen's Park Station (London)",
    "stationId": "HUBQPW",
    "naptanIds": [
      "9100QPRK1",
      "9100QPRK2",
      "910GQPRK",
      "9400ZZLUQPS1",
      "9400ZZLUQPS2",
      "940GZZLUQPS",
      "HUBQPW"
    ],
    "modes": [
      "overground",
      "tube"
    ],
    "lines": [
      "Bakerloo",
      "Lioness"
    ],
    "lat": 51.534043,
    "lon": -0.205285
  },
  {
    "name": "Queensbury Underground Station",
    "stationId": "940GZZLUQBY",
    "naptanIds": [
      "940GZZLUQBY"
    ],
    "modes": [
      "tube"
    ],
    "lines": [
      "Jubilee"
    ],
    "lat": 51.594188,
    "lon": -0.286219
  },
  {
    "name": "Queensway Underground Station",
    "stationId": "940GZZLUQWY",
    "naptanIds": [
      "940GZZLUQWY"
    ],
    "modes": [
      "tube"
    ],
    "lines": [
      "Central"
    ],
    "lat": 51.510312,
    "lon": -0.187152
  },
  {
    "name": "Ravenscourt Park Underground Station",
    "stationId": "940GZZLURVP",
    "naptanIds": [
      "940GZZLURVP"
    ],
    "modes": [
      "tube"
    ],
    "lines": [
      "District"
    ],
    "lat": 51.494122,
    "lon": -0.235881
  },
  {
    "name": "Rayners Lane Underground Station",
    "stationId": "940GZZLURYL",
    "naptanIds": [
      "940GZZLURYL"
    ],
    "modes": [
      "tube"
    ],
    "lines": [
      "Metropolitan",
      "Piccadilly"
    ],
    "lat": 51.575147,
    "lon": -0.371127
  },
  {
    "name": "Redbridge Underground Station",
    "stationId": "940GZZLURBG",
    "naptanIds": [
      "940GZZLURBG"
    ],
    "modes": [
      "tube"
    ],
    "lines": [
      "Central"
    ],
    "lat": 51.576243,
    "lon": 0.04536
  },
  {
    "name": "Regent's Park Underground Station",
    "stationId": "940GZZLURGP",
    "naptanIds": [
      "940GZZLURGP"
    ],
    "modes": [
      "tube"
    ],
    "lines": [
      "Bakerloo"
    ],
    "lat": 51.523344,
    "lon": -0.146444
  },
  {
    "name": "Richmond Station",
    "stationId": "HUBRMD",
    "naptanIds": [
      "9100RICHNLL0",
      "910GRICHMND",
      "9400ZZLURMD1",
      "940GZZLURMD",
      "HUBRMD"
    ],
    "modes": [
      "overground",
      "tube"
    ],
    "lines": [
      "District",
      "South Western Railway",
      "Mildmay"
    ],
    "lat": 51.463164,
    "lon": -0.301238
  },
  {
    "name": "Rickmansworth Underground Station",
    "stationId": "HUBRIC",
    "naptanIds": [
      "9400ZZLURKW1",
      "9400ZZLURKW2",
      "940GZZLURKW",
      "HUBRIC"
    ],
    "modes": [
      "tube"
    ],
    "lines": [
      "Chiltern Railways",
      "Metropolitan"
    ],
    "lat": 51.640198,
    "lon": -0.47366
  },
  {
    "name": "Roding Valley Underground Station",
    "stationId": "940GZZLURVY",
    "naptanIds": [
      "940GZZLURVY"
    ],
    "modes": [
      "tube"
    ],
    "lines": [
      "Central"
    ],
    "lat": 51.617199,
    "lon": 0.043647
  },
  {
    "name": "Royal Oak Underground Station",
    "stationId": "940GZZLURYO",
    "naptanIds": [
      "940GZZLURYO"
    ],
    "modes": [
      "tube"
    ],
    "lines": [
      "Circle",
      "Hammersmith & City"
    ],
    "lat": 51.519113,
    "lon": -0.188748
  },
  {
    "name": "Ruislip Gardens Underground Station",
    "stationId": "940GZZLURSG",
    "naptanIds": [
      "940GZZLURSG"
    ],
    "modes": [
      "tube"
    ],
    "lines": [
      "Central"
    ],
    "lat": 51.560736,
    "lon": -0.41071
  },
  {
    "name": "Ruislip Manor Underground Station",
    "stationId": "940GZZLURSM",
    "naptanIds": [
      "940GZZLURSM"
    ],
    "modes": [
      "tube"
    ],
    "lines": [
      "Metropolitan",
      "Piccadilly"
    ],
    "lat": 51.573202,
    "lon": -0.412973
  },
  {
    "name": "Ruislip Underground Station",
    "stationId": "940GZZLURSP",
    "naptanIds": [
      "940GZZLURSP"
    ],
    "modes": [
      "tube"
    ],
    "lines": [
      "Piccadilly",
      "Metropolitan"
    ],
    "lat": 51.571354,
    "lon": -0.421898
  },
  {
    "name": "Russell Square Underground Station",
    "stationId": "940GZZLURSQ",
    "naptanIds": [
      "940GZZLURSQ"
    ],
    "modes": [
      "tube"
    ],
    "lines": [
      "Piccadilly"
    ],
    "lat": 51.523073,
    "lon": -0.124285
  },
  {
    "name": "Seven Sisters Station",
    "stationId": "HUBSVS",
    "naptanIds": [
      "9100SEVNSIS0",
      "9100SEVNSIS1",
      "910GSEVNSIS",
      "9400ZZLUSVS1",
      "9400ZZLUSVS2",
      "940GZZLUSVS",
      "HUBSVS"
    ],
    "modes": [
      "overground",
      "tube"
    ],
    "lines": [
      "Greater Anglia",
      "Weaver",
      "Victoria"
    ],
    "lat": 51.582602,
    "lon": -0.075357
  },
  {
    "name": "Shepherd's Bush Market Underground Station",
    "stationId": "940GZZLUSBM",
    "naptanIds": [
      "940GZZLUSBM"
    ],
    "modes": [
      "tube"
    ],
    "lines": [
      "Circle",
      "Hammersmith & City"
    ],
    "lat": 51.505579,
    "lon": -0.226375
  },
  {
    "name": "Shepherd's Bush Rail Station",
    "stationId": "HUBSPB",
    "naptanIds": [
      "9100SHPDSB0",
      "9100SHPDSB1",
      "910GSHPDSB",
      "9400ZZLUSBC1",
      "9400ZZLUSBC2",
      "940GZZLUSBC",
      "HUBSPB"
    ],
    "modes": [
      "overground",
      "tube"
    ],
    "lines": [
      "Mildmay",
      "Central"
    ],
    "lat": 51.505729,
    "lon": -0.217867
  },
  {
    "name": "Sloane Square Underground Station",
    "stationId": "940GZZLUSSQ",
    "naptanIds": [
      "940GZZLUSSQ"
    ],
    "modes": [
      "tube"
    ],
    "lines": [
      "Circle",
      "District"
    ],
    "lat": 51.49227,
    "lon": -0.156377
  },
  {
    "name": "Snaresbrook Underground Station",
    "stationId": "940GZZLUSNB",
    "naptanIds": [
      "940GZZLUSNB"
    ],
    "modes": [
      "tube"
    ],
    "lines": [
      "Central"
    ],
    "lat": 51.580678,
    "lon": 0.02144
  },
  {
    "name": "South Ealing Underground Station",
    "stationId": "940GZZLUSEA",
    "naptanIds": [
      "940GZZLUSEA"
    ],
    "modes": [
      "tube"
    ],
    "lines": [
      "Piccadilly"
    ],
    "lat": 51.501003,
    "lon": -0.307424
  },
  {
    "name": "South Harrow Underground Station",
    "stationId": "940GZZLUSHH",
    "naptanIds": [
      "940GZZLUSHH"
    ],
    "modes": [
      "tube"
    ],
    "lines": [
      "Piccadilly"
    ],
    "lat": 51.564888,
    "lon": -0.352492
  },
  {
    "name": "South Kensington Underground Station",
    "stationId": "940GZZLUSKS",
    "naptanIds": [
      "940GZZLUSKS"
    ],
    "modes": [
      "tube"
    ],
    "lines": [
      "Circle",
      "District",
      "Piccadilly"
    ],
    "lat": 51.494094,
    "lon": -0.174138
  },
  {
    "name": "South Kenton Station",
    "stationId": "HUBSOK",
    "naptanIds": [
      "9100SKENTON1",
      "910GSKENTON",
      "9400ZZLUSKT1",
      "9400ZZLUSKT2",
      "940GZZLUSKT",
      "HUBSOK"
    ],
    "modes": [
      "overground",
      "tube"
    ],
    "lines": [
      "Bakerloo",
      "Lioness"
    ],
    "lat": 51.570133,
    "lon": -0.308451
  },
  {
    "name": "South Ruislip Underground Station",
    "stationId": "HUBSRU",
    "naptanIds": [
      "9400ZZLUSRP1",
      "9400ZZLUSRP2",
      "940GZZLUSRP",
      "HUBSRU"
    ],
    "modes": [
      "tube"
    ],
    "lines": [
      "Chiltern Railways",
      "Central"
    ],
    "lat": 51.556967,
    "lon": -0.399373
  },
  {
    "name": "South Wimbledon Underground Station",
    "stationId": "940GZZLUSWN",
    "naptanIds": [
      "940GZZLUSWN"
    ],
    "modes": [
      "tube"
    ],
    "lines": [],
    "lat": 51.415309,
    "lon": -0.192005
  },
  {
    "name": "South Woodford Underground Station",
    "stationId": "940GZZLUSWF",
    "naptanIds": [
      "940GZZLUSWF"
    ],
    "modes": [
      "tube"
    ],
    "lines": [
      "Central"
    ],
    "lat": 51.591907,
    "lon": 0.027338
  },
  {
    "name": "Southfields Underground Station",
    "stationId": "940GZZLUSFS",
    "naptanIds": [
      "940GZZLUSFS"
    ],
    "modes": [
      "tube"
    ],
    "lines": [
      "District"
    ],
    "lat": 51.445073,
    "lon": -0.206602
  },
  {
    "name": "Southgate Underground Station",
    "stationId": "940GZZLUSGT",
    "naptanIds": [
      "940GZZLUSGT"
    ],
    "modes": [
      "tube"
    ],
    "lines": [
      "Piccadilly"
    ],
    "lat": 51.632315,
    "lon": -0.127816
  },
  {
    "name": "Southwark Underground Station",
    "stationId": "940GZZLUSWK",
    "naptanIds": [
      "940GZZLUSWK"
    ],
    "modes": [
      "tube"
    ],
    "lines": [
      "Jubilee"
    ],
    "lat": 51.50427,
    "lon": -0.105331
  },
  {
    "name": "St. James's Park Underground Station",
    "stationId": "940GZZLUSJP",
    "naptanIds": [
      "940GZZLUSJP"
    ],
    "modes": [
      "tube"
    ],
    "lines": [
      "Circle",
      "District"
    ],
    "lat": 51.499544,
    "lon": -0.133608
  },
  {
    "name": "St. John's Wood Underground Station",
    "stationId": "940GZZLUSJW",
    "naptanIds": [
      "940GZZLUSJW"
    ],
    "modes": [
      "tube"
    ],
    "lines": [
      "Jubilee"
    ],
    "lat": 51.534521,
    "lon": -0.173948
  },
  {
    "name": "St. Paul's Underground Station",
    "stationId": "940GZZLUSPU",
    "naptanIds": [
      "940GZZLUSPU"
    ],
    "modes": [
      "tube"
    ],
    "lines": [
      "Central"
    ],
    "lat": 51.514936,
    "lon": -0.097567
  },
  {
    "name": "Stamford Brook Underground Station",
    "stationId": "940GZZLUSFB",
    "naptanIds": [
      "940GZZLUSFB"
    ],
    "modes": [
      "tube"
    ],
    "lines": [
      "District"
    ],
    "lat": 51.494917,
    "lon": -0.245704
  },
  {
    "name": "Stanmore Underground Station",
    "stationId": "940GZZLUSTM",
    "naptanIds": [
      "940GZZLUSTM"
    ],
    "modes": [
      "tube"
    ],
    "lines": [
      "Jubilee"
    ],
    "lat": 51.619839,
    "lon": -0.303266
  },
  {
    "name": "Stepney Green Underground Station",
    "stationId": "940GZZLUSGN",
    "naptanIds": [
      "940GZZLUSGN"
    ],
    "modes": [
      "tube"
    ],
    "lines": [
      "District",
      "Hammersmith & City"
    ],
    "lat": 51.521858,
    "lon": -0.046596
  },
  {
    "name": "Stockwell Underground Station",
    "stationId": "940GZZLUSKW",
    "naptanIds": [
      "940GZZLUSKW"
    ],
    "modes": [
      "tube"
    ],
    "lines": [
      "Victoria"
    ],
    "lat": 51.472184,
    "lon": -0.122644
  },
  {
    "name": "Stonebridge Park Station",
    "stationId": "HUBSBP",
    "naptanIds": [
      "9100STNBGPK0",
      "9100STNBGPK1",
      "910GSTNBGPK",
      "9400ZZLUSGP1",
      "9400ZZLUSGP2",
      "940GZZLUSGP",
      "HUBSBP"
    ],
    "modes": [
      "overground",
      "tube"
    ],
    "lines": [
      "Bakerloo",
      "Lioness"
    ],
    "lat": 51.544031,
    "lon": -0.275903
  },
  {
    "name": "Stratford Station",
    "stationId": "HUBSRA",
    "naptanIds": [
      "9100STFD4",
      "9100STFD5",
      "910GSTFD",
      "9400ZZDLSTD1",
      "9400ZZDLSTD3",
      "9400ZZDLSTD4",
      "9400ZZLUSTD1",
      "9400ZZLUSTD2",
      "9400ZZLUSTD3",
      "940GZZDLSTD",
      "940GZZLUSTD",
      "HUBSRA"
    ],
    "modes": [
      "overground",
      "elizabeth-line",
      "dlr",
      "tube"
    ],
    "lines": [
      "Jubilee",
      "DLR",
      "D8",
      "Greater Anglia",
      "Mildmay",
      "Elizabeth line",
      "c2c",
      "Central"
    ],
    "lat": 51.542847,
    "lon": -0.003297
  },
  {
    "name": "Sudbury Hill Underground Station",
    "stationId": "940GZZLUSUH",
    "naptanIds": [
      "940GZZLUSUH"
    ],
    "modes": [
      "tube"
    ],
    "lines": [
      "Piccadilly"
    ],
    "lat": 51.556946,
    "lon": -0.336435
  },
  {
    "name": "Sudbury Town Underground Station",
    "stationId": "940GZZLUSUT",
    "naptanIds": [
      "940GZZLUSUT"
    ],
    "modes": [
      "tube"
    ],
    "lines": [
      "Piccadilly"
    ],
    "lat": 51.550815,
    "lon": -0.315745
  },
  {
    "name": "Swiss Cottage Underground Station",
    "stationId": "940GZZLUSWC",
    "naptanIds": [
      "940GZZLUSWC"
    ],
    "modes": [
      "tube"
    ],
    "lines": [
      "Jubilee"
    ],
    "lat": 51.543681,
    "lon": -0.174894
  },
  {
    "name": "Temple Underground Station",
    "stationId": "940GZZLUTMP",
    "naptanIds": [
      "940GZZLUTMP"
    ],
    "modes": [
      "tube"
    ],
    "lines": [
      "Circle",
      "District"
    ],
    "lat": 51.511006,
    "lon": -0.11426
  },
  {
    "name": "Theydon Bois Underground Station",
    "stationId": "940GZZLUTHB",
    "naptanIds": [
      "940GZZLUTHB"
    ],
    "modes": [
      "tube"
    ],
    "lines": [
      "Central"
    ],
    "lat": 51.671759,
    "lon": 0.103085
  },
  {
    "name": "Tooting Bec Underground Station",
    "stationId": "940GZZLUTBC",
    "naptanIds": [
      "940GZZLUTBC"
    ],
    "modes": [
      "tube"
    ],
    "lines": [],
    "lat": 51.435678,
    "lon": -0.159736
  },
  {
    "name": "Tooting Broadway Underground Station",
    "stationId": "940GZZLUTBY",
    "naptanIds": [
      "940GZZLUTBY"
    ],
    "modes": [
      "tube"
    ],
    "lines": [],
    "lat": 51.42763,
    "lon": -0.168374
  },
  {
    "name": "Tottenham Court Road Station",
    "stationId": "HUBTCR",
    "naptanIds": [
      "9100TOTCTRD0",
      "9100TOTCTRD1",
      "910GTOTCTRD",
      "9400ZZLUTCR1",
      "9400ZZLUTCR2",
      "9400ZZLUTCR3",
      "9400ZZLUTCR4",
      "940GZZLUTCR",
      "HUBTCR"
    ],
    "modes": [
      "elizabeth-line",
      "tube"
    ],
    "lines": [
      "Elizabeth line",
      "Central"
    ],
    "lat": 51.515974,
    "lon": -0.130241
  },
  {
    "name": "Tottenham Hale Underground Station",
    "stationId": "HUBTOM",
    "naptanIds": [
      "9400ZZLUTMH1",
      "9400ZZLUTMH2",
      "940GZZLUTMH",
      "HUBTOM"
    ],
    "modes": [
      "tube"
    ],
    "lines": [
      "Greater Anglia",
      "Victoria"
    ],
    "lat": 51.588309,
    "lon": -0.061532
  },
  {
    "name": "Totteridge & Whetstone Underground Station",
    "stationId": "940GZZLUTAW",
    "naptanIds": [
      "940GZZLUTAW"
    ],
    "modes": [
      "tube"
    ],
    "lines": [],
    "lat": 51.630597,
    "lon": -0.17921
  },
  {
    "name": "Tower Hill Underground Station",
    "stationId": "940GZZLUTWH",
    "naptanIds": [
      "940GZZLUTWH"
    ],
    "modes": [
      "tube"
    ],
    "lines": [
      "Circle",
      "District"
    ],
    "lat": 51.509971,
    "lon": -0.076546
  },
  {
    "name": "Tufnell Park Underground Station",
    "stationId": "940GZZLUTFP",
    "naptanIds": [
      "940GZZLUTFP"
    ],
    "modes": [
      "tube"
    ],
    "lines": [],
    "lat": 51.556822,
    "lon": -0.138433
  },
  {
    "name": "Turnham Green Underground Station",
    "stationId": "940GZZLUTNG",
    "naptanIds": [
      "940GZZLUTNG"
    ],
    "modes": [
      "tube"
    ],
    "lines": [
      "District",
      "Piccadilly"
    ],
    "lat": 51.495148,
    "lon": -0.254555
  },
  {
    "name": "Turnpike Lane Underground Station",
    "stationId": "940GZZLUTPN",
    "naptanIds": [
      "940GZZLUTPN"
    ],
    "modes": [
      "tube"
    ],
    "lines": [
      "Piccadilly"
    ],
    "lat": 51.590272,
    "lon": -0.102953
  },
  {
    "name": "Upminster Bridge Underground Station",
    "stationId": "940GZZLUUPB",
    "naptanIds": [
      "940GZZLUUPB"
    ],
    "modes": [
      "tube"
    ],
    "lines": [
      "District"
    ],
    "lat": 51.55856,
    "lon": 0.235809
  },
  {
    "name": "Upminster Station",
    "stationId": "HUBUPM",
    "naptanIds": [
      "9100UPMNSP61",
      "910GUPMNSTR",
      "9400ZZLUUPM1",
      "940GZZLUUPM",
      "HUBUPM"
    ],
    "modes": [
      "overground",
      "tube"
    ],
    "lines": [
      "District",
      "Liberty",
      "c2c"
    ],
    "lat": 51.559349,
    "lon": 0.251473
  },
  {
    "name": "Upney Underground Station",
    "stationId": "940GZZLUUPY",
    "naptanIds": [
      "940GZZLUUPY"
    ],
    "modes": [
      "tube"
    ],
    "lines": [
      "District"
    ],
    "lat": 51.538372,
    "lon": 0.10153
  },
  {
    "name": "Upton Park Underground Station",
    "stationId": "940GZZLUUPK",
    "naptanIds": [
      "940GZZLUUPK"
    ],
    "modes": [
      "tube"
    ],
    "lines": [
      "District",
      "Hammersmith & City"
    ],
    "lat": 51.53534,
    "lon": 0.035263
  },
  {
    "name": "Uxbridge Underground Station",
    "stationId": "940GZZLUUXB",
    "naptanIds": [
      "940GZZLUUXB"
    ],
    "modes": [
      "tube"
    ],
    "lines": [
      "Metropolitan",
      "Piccadilly"
    ],
    "lat": 51.546565,
    "lon": -0.477949
  },
  {
    "name": "Vauxhall Underground Station",
    "stationId": "HUBVXH",
    "naptanIds": [
      "9400ZZLUVXL1",
      "9400ZZLUVXL2",
      "940GZZLUVXL",
      "HUBVXH"
    ],
    "modes": [
      "tube"
    ],
    "lines": [
      "South Western Railway",
      "Victoria"
    ],
    "lat": 51.486216,
    "lon": -0.12453
  },
  {
    "name": "Victoria Underground Station",
    "stationId": "HUBVIC",
    "naptanIds": [
      "9400ZZLUVIC1",
      "9400ZZLUVIC2",
      "9400ZZLUVIC3",
      "9400ZZLUVIC4",
      "940GZZLUVIC",
      "HUBVIC"
    ],
    "modes": [
      "tube"
    ],
    "lines": [
      "District",
      "Thameslink",
      "Victoria",
      "Circle",
      "Gatwick Express",
      "Southern",
      "Southeastern"
    ],
    "lat": 51.49645,
    "lon": -0.144899
  },
  {
    "name": "Walthamstow Central Station",
    "stationId": "HUBWHC",
    "naptanIds": [
      "9100WLTWCEN1",
      "9100WLTWCEN2",
      "910GWLTWCEN",
      "9400ZZLUWWL1",
      "940GZZLUWWL",
      "HUBWHC"
    ],
    "modes": [
      "overground",
      "tube"
    ],
    "lines": [
      "Weaver",
      "Victoria"
    ],
    "lat": 51.582898,
    "lon": -0.020191
  },
  {
    "name": "Wanstead Underground Station",
    "stationId": "940GZZLUWSD",
    "naptanIds": [
      "940GZZLUWSD"
    ],
    "modes": [
      "tube"
    ],
    "lines": [
      "Central"
    ],
    "lat": 51.575501,
    "lon": 0.028527
  },
  {
    "name": "Warren Street Underground Station",
    "stationId": "940GZZLUWRR",
    "naptanIds": [
      "940GZZLUWRR"
    ],
    "modes": [
      "tube"
    ],
    "lines": [
      "Victoria"
    ],
    "lat": 51.524951,
    "lon": -0.138321
  },
  {
    "name": "Warwick Avenue Underground Station",
    "stationId": "940GZZLUWKA",
    "naptanIds": [
      "940GZZLUWKA"
    ],
    "modes": [
      "tube"
    ],
    "lines": [
      "Bakerloo"
    ],
    "lat": 51.523263,
    "lon": -0.183783
  },
  {
    "name": "Waterloo Underground Station",
    "stationId": "HUBWAT",
    "naptanIds": [
      "9400ZZLUWLO1",
      "9400ZZLUWLO2",
      "9400ZZLUWLO3",
      "9400ZZLUWLO4",
      "9400ZZLUWLO5",
      "9400ZZLUWLO6",
      "9400ZZLUWLO7",
      "9400ZZLUWLO8",
      "940GZZLUWLO",
      "HUBWAT"
    ],
    "modes": [
      "tube"
    ],
    "lines": [
      "Bakerloo",
      "Jubilee",
      "South Western Railway",
      "C10",
      "SL6",
      "Waterloo & City"
    ],
    "lat": 51.503097,
    "lon": -0.11512
  },
  {
    "name": "Watford Underground Station",
    "stationId": "940GZZLUWAF",
    "naptanIds": [
      "940GZZLUWAF"
    ],
    "modes": [
      "tube"
    ],
    "lines": [
      "Metropolitan"
    ],
    "lat": 51.657446,
    "lon": -0.417377
  },
  {
    "name": "Wembley Central Station",
    "stationId": "HUBWMB",
    "naptanIds": [
      "9100WMBYDC1",
      "9100WMBYDC2",
      "910GWMBY",
      "9400ZZLUWYC1",
      "9400ZZLUWYC2",
      "940GZZLUWYC",
      "HUBWMB"
    ],
    "modes": [
      "overground",
      "tube"
    ],
    "lines": [
      "Bakerloo",
      "Lioness"
    ],
    "lat": 51.55195,
    "lon": -0.296591
  },
  {
    "name": "Wembley Park Underground Station",
    "stationId": "940GZZLUWYP",
    "naptanIds": [
      "940GZZLUWYP"
    ],
    "modes": [
      "tube"
    ],
    "lines": [
      "Jubilee",
      "Metropolitan"
    ],
    "lat": 51.563198,
    "lon": -0.279262
  },
  {
    "name": "West Acton Underground Station",
    "stationId": "940GZZLUWTA",
    "naptanIds": [
      "940GZZLUWTA"
    ],
    "modes": [
      "tube"
    ],
    "lines": [
      "Central"
    ],
    "lat": 51.518001,
    "lon": -0.28098
  },
  {
    "name": "West Brompton Station",
    "stationId": "HUBWBP",
    "naptanIds": [
      "9100WBRMPTN0",
      "9100WBRMPTN1",
      "910GWBRMPTN",
      "9400ZZLUWBN1",
      "9400ZZLUWBN2",
      "940GZZLUWBN",
      "HUBWBP"
    ],
    "modes": [
      "overground",
      "tube"
    ],
    "lines": [
      "District",
      "Mildmay"
    ],
    "lat": 51.48672,
    "lon": -0.195044
  },
  {
    "name": "West Finchley Underground Station",
    "stationId": "940GZZLUWFN",
    "naptanIds": [
      "940GZZLUWFN"
    ],
    "modes": [
      "tube"
    ],
    "lines": [],
    "lat": 51.609426,
    "lon": -0.188362
  },
  {
    "name": "West Ham DLR Station",
    "stationId": "HUBWEH",
    "naptanIds": [
      "9400ZZDLWHM1",
      "9400ZZDLWHM2",
      "9400ZZLUWHM1",
      "9400ZZLUWHM2",
      "9400ZZLUWHM3",
      "9400ZZLUWHM4",
      "940GZZDLWHM",
      "940GZZLUWHM",
      "HUBWEH"
    ],
    "modes": [
      "dlr",
      "tube"
    ],
    "lines": [
      "Jubilee",
      "District",
      "Hammersmith & City",
      "DLR",
      "c2c"
    ],
    "lat": 51.52776,
    "lon": 0.004448
  },
  {
    "name": "West Hampstead Overground Station",
    "stationId": "HUBWHD",
    "naptanIds": [
      "9100WHMDSTD0",
      "9100WHMDSTD1",
      "910GWHMDSTD",
      "9400ZZLUWHP1",
      "9400ZZLUWHP2",
      "940GZZLUWHP",
      "HUBWHD"
    ],
    "modes": [
      "overground",
      "tube"
    ],
    "lines": [
      "Jubilee",
      "Thameslink",
      "Mildmay"
    ],
    "lat": 51.547309,
    "lon": -0.191998
  },
  {
    "name": "West Harrow Underground Station",
    "stationId": "940GZZLUWHW",
    "naptanIds": [
      "940GZZLUWHW"
    ],
    "modes": [
      "tube"
    ],
    "lines": [
      "Metropolitan"
    ],
    "lat": 51.57971,
    "lon": -0.3534
  },
  {
    "name": "West Kensington Underground Station",
    "stationId": "940GZZLUWKN",
    "naptanIds": [
      "940GZZLUWKN"
    ],
    "modes": [
      "tube"
    ],
    "lines": [
      "District"
    ],
    "lat": 51.490459,
    "lon": -0.206636
  },
  {
    "name": "West Ruislip Underground Station",
    "stationId": "HUBWRU",
    "naptanIds": [
      "9400ZZLUWRP1",
      "940GZZLUWRP",
      "HUBWRU"
    ],
    "modes": [
      "tube"
    ],
    "lines": [
      "Chiltern Railways",
      "Central"
    ],
    "lat": 51.56951,
    "lon": -0.437343
  },
  {
    "name": "Westbourne Park Underground Station",
    "stationId": "940GZZLUWSP",
    "naptanIds": [
      "940GZZLUWSP"
    ],
    "modes": [
      "tube"
    ],
    "lines": [
      "Circle",
      "Hammersmith & City"
    ],
    "lat": 51.52111,
    "lon": -0.201065
  },
  {
    "name": "Westminster Underground Station",
    "stationId": "HUBWSM",
    "naptanIds": [
      "9400ZZLUWSM1",
      "9400ZZLUWSM2",
      "9400ZZLUWSM3",
      "9400ZZLUWSM4",
      "940GZZLUWSM",
      "HUBWSM"
    ],
    "modes": [
      "tube"
    ],
    "lines": [
      "Circle",
      "District",
      "Jubilee"
    ],
    "lat": 51.501284,
    "lon": -0.124877
  },
  {
    "name": "White City Underground Station",
    "stationId": "940GZZLUWCY",
    "naptanIds": [
      "940GZZLUWCY"
    ],
    "modes": [
      "tube"
    ],
    "lines": [
      "Central"
    ],
    "lat": 51.511959,
    "lon": -0.224297
  },
  {
    "name": "Whitechapel Station",
    "stationId": "HUBZWL",
    "naptanIds": [
      "9100WCHAPEL1",
      "9100WCHAPEL2",
      "9100WCHAPXR0",
      "9100WCHAPXR1",
      "910GWCHAPEL",
      "910GWCHAPXR",
      "9400ZZLUWPL1",
      "9400ZZLUWPL2",
      "940GZZLUWPL",
      "HUBZWL"
    ],
    "modes": [
      "overground",
      "elizabeth-line",
      "tube"
    ],
    "lines": [
      "Elizabeth line",
      "District",
      "Windrush",
      "Hammersmith & City"
    ],
    "lat": 51.519469,
    "lon": -0.059757
  },
  {
    "name": "Willesden Green Underground Station",
    "stationId": "940GZZLUWIG",
    "naptanIds": [
      "940GZZLUWIG"
    ],
    "modes": [
      "tube"
    ],
    "lines": [
      "Jubilee"
    ],
    "lat": 51.549146,
    "lon": -0.221537
  },
  {
    "name": "Willesden Junction Station",
    "stationId": "HUBWIJ",
    "naptanIds": [
      "9100WLSDJHL1",
      "9100WLSDNJL1",
      "910GWLSDJHL",
      "9400ZZLUWJN1",
      "9400ZZLUWJN2",
      "940GZZLUWJN",
      "HUBWIJ"
    ],
    "modes": [
      "overground",
      "tube"
    ],
    "lines": [
      "Bakerloo",
      "Lioness",
      "Mildmay"
    ],
    "lat": 51.531992,
    "lon": -0.243284
  },
  {
    "name": "Wimbledon Park Underground Station",
    "stationId": "940GZZLUWIP",
    "naptanIds": [
      "940GZZLUWIP"
    ],
    "modes": [
      "tube"
    ],
    "lines": [
      "District"
    ],
    "lat": 51.434573,
    "lon": -0.199719
  },
  {
    "name": "Wimbledon Underground Station",
    "stationId": "HUBWIM",
    "naptanIds": [
      "9400ZZLUWIM1",
      "940GZZLUWIM",
      "HUBWIM"
    ],
    "modes": [
      "tube"
    ],
    "lines": [
      "District",
      "South Western Railway",
      "Thameslink",
      "Tram"
    ],
    "lat": 51.421342,
    "lon": -0.206625
  },
  {
    "name": "Wood Green Underground Station",
    "stationId": "940GZZLUWOG",
    "naptanIds": [
      "940GZZLUWOG"
    ],
    "modes": [
      "tube"
    ],
    "lines": [
      "Piccadilly"
    ],
    "lat": 51.597479,
    "lon": -0.109886
  },
  {
    "name": "Wood Lane Underground Station",
    "stationId": "940GZZLUWLA",
    "naptanIds": [
      "940GZZLUWLA"
    ],
    "modes": [
      "tube"
    ],
    "lines": [
      "Circle",
      "Hammersmith & City"
    ],
    "lat": 51.509669,
    "lon": -0.22453
  },
  {
    "name": "Woodford Underground Station",
    "stationId": "940GZZLUWOF",
    "naptanIds": [
      "940GZZLUWOF"
    ],
    "modes": [
      "tube"
    ],
    "lines": [
      "Central"
    ],
    "lat": 51.606899,
    "lon": 0.03397
  },
  {
    "name": "Woodside Park Underground Station",
    "stationId": "940GZZLUWOP",
    "naptanIds": [
      "940GZZLUWOP"
    ],
    "modes": [
      "tube"
    ],
    "lines": [],
    "lat": 51.618014,
    "lon": -0.18542
  }
]