[
  {
    "name": "Abbey Road DLR Station",
    "lat": 51.531926,
    "lon": 0.003737,
    "modes": [
      "dlr"
    ],
    "lines": [
      "DLR"
    ],
    "child_stations": []
  },
  {
    "name": "All Saints DLR Station",
    "lat": 51.511,
    "lon": -0.013135,
    "modes": [
      "dlr"
    ],
    "lines": [
      "DLR"
    ],
    "child_stations": []
  },
  {
    "name": "Bank Underground Station",
    "lat": 51.513132,
    "lon": -0.090047,
    "modes": [
      "tube",
      "dlr"
    ],
    "lines": [
      "Waterloo & City",
      "DLR",
      "Central"
    ],
    "child_stations": [
      "Bank DLR Station"
    ]
  },
  {
    "name": "Beckton DLR Station",
    "lat": 51.514362,
    "lon": 0.061453,
    "modes": [
      "dlr"
    ],
    "lines": [
      "DLR"
    ],
    "child_stations": []
  },
  {
    "name": "Beckton Park DLR Station",
    "lat": 51.508793,
    "lon": 0.054932,
    "modes": [
      "dlr"
    ],
    "lines": [
      "DLR"
    ],
    "child_stations": []
  },
  {
    "name": "Blackwall DLR Station",
    "lat": 51.507991,
    "lon": -0.006969,
    "modes": [
      "dlr"
    ],
    "lines": [
      "DLR"
    ],
    "child_stations": []
  },
  {
    "name": "Bow Church DLR Station",
    "lat": 51.527858,
    "lon": -0.020936,
    "modes": [
      "dlr"
    ],
    "lines": [
      "DLR"
    ],
    "child_stations": []
  },
  {
    "name": "Canary Wharf Underground Station",
    "lat": 51.503488,
    "lon": -0.018246,
    "modes": [
      "tube",
      "dlr"
    ],
    "lines": [
      "DLR",
      "Jubilee"
    ],
    "child_stations": [
      "Canary Wharf DLR Station"
    ]
  },
  {
    "name": "Canning Town Underground Station",
    "lat": 51.513584,
    "lon": 0.008322,
    "modes": [
      "tube",
      "dlr"
    ],
    "lines": [
      "DLR",
      "Jubilee"
    ],
    "child_stations": [
      "Canning Town DLR Station"
    ]
  },
  {
    "name": "Crossharbour DLR Station",
    "lat": 51.495728,
    "lon": -0.014606,
    "modes": [
      "dlr"
    ],
    "lines": [
      "DLR"
    ],
    "child_stations": []
  },
  {
    "name": "Custom House (for ExCel) DLR Station",
    "lat": 51.509716,
    "lon": 0.026699,
    "modes": [
      "dlr"
    ],
    "lines": [
      "DLR"
    ],
    "child_stations": []
  },
  {
    "name": "Cutty Sark (for Maritime Greenwich) DLR Station",
    "lat": 51.481671,
    "lon": -0.01081,
    "modes": [
      "dlr"
    ],
    "lines": [
      "DLR"
    ],
    "child_stations": []
  },
  {
    "name": "Cyprus DLR Station",
    "lat": 51.508473,
    "lon": 0.063925,
    "modes": [
      "dlr"
    ],
    "lines": [
      "DLR"
    ],
    "child_stations": []
  },
  {
    "name": "Deptford Bridge DLR Station",
    "lat": 51.474215,
    "lon": -0.022438,
    "modes": [
      "dlr"
    ],
    "lines": [
      "DLR"
    ],
    "child_stations": []
  },
  {
    "name": "Devons Road DLR Station",
    "lat": 51.522667,
    "lon": -0.017615,
    "modes": [
      "dlr"
    ],
    "lines": [
      "DLR"
    ],
    "child_stations": []
  },
  {
    "name": "East India DLR Station",
    "lat": 51.509359,
    "lon": -0.002326,
    "modes": [
      "dlr"
    ],
    "lines": [
      "DLR",
      "SL4",
      "D3"
    ],
    "child_stations": []
  },
  {
    "name": "Elverson Road DLR Station",
    "lat": 51.469074,
    "lon": -0.016728,
    "modes": [
      "dlr"
    ],
    "lines": [
      "DLR"
    ],
    "child_stations": []
  },
  {
    "name": "Gallions Reach DLR Station",
    "lat": 51.508941,
    "lon": 0.071555,
    "modes": [
      "dlr"
    ],
    "lines": [
      "DLR"
    ],
    "child_stations": []
  },
  {
    "name": "Greenwich DLR Station",
    "lat": 51.478087,
    "lon": -0.013673,
    "modes": [
      "dlr"
    ],
    "lines": [
      "DLR"
    ],
    "child_stations": []
  },
  {
    "name": "Heron Quays DLR Station",
    "lat": 51.503379,
    "lon": -0.021421,
    "modes": [
      "dlr"
    ],
    "lines": [
      "DLR"
    ],
    "child_stations": []
  },
  {
    "name": "Island Gardens DLR Station",
    "lat": 51.487811,
    "lon": -0.010139,
    "modes": [
      "dlr"
    ],
    "lines": [
      "DLR"
    ],
    "child_stations": []
  },
  {
    "name": "King George V DLR Station",
    "lat": 51.502003,
    "lon": 0.062624,
    "modes": [
      "dlr"
    ],
    "lines": [
      "DLR"
    ],
    "child_stations": []
  },
  {
    "name": "Langdon Park DLR Station",
    "lat": 51.515172,
    "lon": -0.01415,
    "modes": [
      "dlr"
    ],
    "lines": [
      "DLR"
    ],
    "child_stations": []
  },
  {
    "name": "Lewisham DLR Station",
    "lat": 51.464665,
    "lon": -0.012874,
    "modes": [
      "dlr"
    ],
    "lines": [
      "DLR"
    ],
    "child_stations": []
  },
  {
    "name": "Limehouse DLR Station",
    "lat": 51.512393,
    "lon": -0.039809,
    "modes": [
      "dlr"
    ],
    "lines": [
      "DLR"
    ],
    "child_stations": []
  },
  {
    "name": "London City Airport DLR Station",
    "lat": 51.503416,
    "lon": 0.048739,
    "modes": [
      "dlr"
    ],
    "lines": [
      "DLR"
    ],
    "child_stations": []
  },
  {
    "name": "Mudchute DLR Station",
    "lat": 51.490704,
    "lon": -0.014738,
    "modes": [
      "dlr"
    ],
    "lines": [
      "DLR"
    ],
    "child_stations": []
  },
  {
    "name": "Pontoon Dock DLR Station",
    "lat": 51.502212,
    "lon": 0.032115,
    "modes": [
      "dlr"
    ],
    "lines": [
      "DLR"
    ],
    "child_stations": []
  },
  {
    "name": "Poplar DLR Station",
    "lat": 51.507744,
    "lon": -0.017384,
    "modes": [
      "dlr"
    ],
    "lines": [
      "DLR"
    ],
    "child_stations": []
  },
  {
    "name": "Prince Regent DLR Station",
    "lat": 51.509263,
    "lon": 0.034158,
    "modes": [
      "dlr"
    ],
    "lines": [
      "DLR"
    ],
    "child_stations": []
  },
  {
    "name": "Pudding Mill Lane DLR Station",
    "lat": 51.534302,
    "lon": -0.012755,
    "modes": [
      "dlr"
    ],
    "lines": [
      "DLR"
    ],
    "child_stations": []
  },
  {
    "name": "Royal Albert DLR Station",
    "lat": 51.508357,
    "lon": 0.045935,
    "modes": [
      "dlr"
    ],
    "lines": [
      "DLR"
    ],
    "child_stations": []
  },
  {
    "name": "Royal Victoria DLR Station",
    "lat": 51.509336,
    "lon": 0.018497,
    "modes": [
      "dlr"
    ],
    "lines": [
      "DLR"
    ],
    "child_stations": []
  },
  {
    "name": "Shadwell DLR Station",
    "lat": 51.511693,
    "lon": -0.056643,
    "modes": [
      "dlr"
    ],
    "lines": [
      "DLR"
    ],
    "child_stations": []
  },
  {
    "name": "South Quay DLR Station",
    "lat": 51.50005,
    "lon": -0.01597,
    "modes": [
      "dlr"
    ],
    "lines": [
      "DLR"
    ],
    "child_stations": []
  },
  {
    "name": "Star Lane DLR Station",
    "lat": 51.520786,
    "lon": 0.004156,
    "modes": [
      "dlr"
    ],
    "lines": [
      "DLR"
    ],
    "child_stations": []
  },
  {
    "name": "Stratford High Street DLR Station",
    "lat": 51.538196,
    "lon": -0.001078,
    "modes": [
      "dlr"
    ],
    "lines": [
      "DLR"
    ],
    "child_stations": []
  },
  {
    "name": "Stratford International DLR Station",
    "lat": 51.545265,
    "lon": -0.009638,
    "modes": [
      "dlr"
    ],
    "lines": [
      "DLR"
    ],
    "child_stations": []
  },
  {
    "name": "Stratford Underground Station",
    "lat": 51.541806,
    "lon": -0.003458,
    "modes": [
      "tube",
      "dlr"
    ],
    "lines": [
      "Jubilee",
      "DLR",
      "Central"
    ],
    "child_stations": [
      "Stratford DLR Station"
    ]
  },
  {
    "name": "Tower Gateway DLR Station",
    "lat": 51.510617,
    "lon": -0.074818,
    "modes": [
      "dlr"
    ],
    "lines": [
      "DLR"
    ],
    "child_stations": []
  },
  {
    "name": "West Ham Underground Station",
    "lat": 51.528136,
    "lon": 0.005055,
    "modes": [
      "tube",
      "dlr"
    ],
    "lines": [
      "DLR",
      "Jubilee",
      "District",
      "Hammersmith & City"
    ],
    "child_stations": [
      "West Ham DLR Station"
    ]
  },
  {
    "name": "West India Quay DLR Station",
    "lat": 51.50703,
    "lon": -0.020311,
    "modes": [
      "dlr"
    ],
    "lines": [
      "DLR"
    ],
    "child_stations": []
  },
  {
    "name": "West Silvertown DLR Station",
    "lat": 51.502838,
    "lon": 0.02246,
    "modes": [
      "dlr"
    ],
    "lines": [
      "DLR"
    ],
    "child_stations": []
  },
  {
    "name": "Westferry DLR Station",
    "lat": 51.509431,
    "lon": -0.02675,
    "modes": [
      "dlr"
    ],
    "lines": [
      "DLR"
    ],
    "child_stations": []
  },
  {
    "name": "Woolwich Arsenal DLR Station",
    "lat": 51.490009,
    "lon": 0.069127,
    "modes": [
      "dlr"
    ],
    "lines": [
      "DLR"
    ],
    "child_stations": []
  }
]